[
  {
    "facId": "A11",
    "name": "Anchorage TRACON",
    "level": "8",
    "type": "TRACON",
    "address": "5200 W International Airport Rd",
    "city": "Anchorage",
    "state": "AK",
    "zip": "99502",
    "phone": "907-271-2700",
    "hours": "0000-2359",
    "travelDays": "9",
    "lat": "61.17735",
    "long": "-149.97821"
  },
  {
    "facId": "A80",
    "name": "Atlanta TRACON",
    "level": "12",
    "type": "TRACON",
    "address": "784 S Hwy 74",
    "city": "Peachtree City",
    "state": "GA",
    "zip": "30269",
    "phone": "678-364-6000",
    "hours": "0000-2359",
    "travelDays": "2",
    "lat": "33.351769",
    "long": "-84.550204"
  },
  {
    "facId": "A90",
    "name": "Boston TRACON",
    "level": "11",
    "type": "TRACON",
    "address": "25 Robert Milligan Pkwy",
    "city": "Merrimack",
    "state": "NH",
    "zip": "3054",
    "phone": "603-594-5500",
    "hours": "0000-2359",
    "travelDays": "4",
    "lat": "42.816611",
    "long": "-71.493611"
  },
  {
    "facId": "ABE",
    "name": "Allentown Tower",
    "level": "7",
    "type": "COMBINED TRACON TOWER",
    "address": "135 Fashion Dr S",
    "city": "Allentown",
    "state": "PA",
    "zip": "18109",
    "phone": "610-264-4539",
    "hours": "0000-2359",
    "travelDays": "3",
    "lat": "40.658198",
    "long": "-75.441448"
  },
  {
    "facId": "ABI",
    "name": "Abilene Tower",
    "level": "6",
    "type": "COMBINED TRACON TOWER",
    "address": "2925 Lance Dr",
    "city": "Abilene",
    "state": "TX",
    "zip": "79602",
    "phone": "325-201-9442",
    "hours": "0000-2359",
    "travelDays": "1",
    "lat": "32.414646",
    "long": "-99.67937"
  },
  {
    "facId": "ABQ",
    "name": "Albuquerque Tower",
    "level": "8",
    "type": "COMBINED TRACON TOWER",
    "address": "2800 Kirtland Dr SE",
    "city": "Albuquerque",
    "state": "NM",
    "zip": "87117",
    "phone": "505-856-4900",
    "hours": "0000-2359",
    "travelDays": "2",
    "lat": "35.04877",
    "long": "-106.606432"
  },
  {
    "facId": "ACK",
    "name": "Nantucket Tower",
    "level": "5",
    "type": "TOWER WITH RADAR",
    "address": "14 Airport Rd Unit 14",
    "city": "Nantucket",
    "state": "MA",
    "zip": "2554",
    "phone": "508-563-1487",
    "hours": "0600-2200 MAY 15-SEP 30; 0600-2100 OCT 1-MAY 14",
    "travelDays": "4",
    "lat": "41.257091",
    "long": "-70.06338"
  },
  {
    "facId": "ACT",
    "name": "Waco Tower",
    "level": "6",
    "type": "COMBINED TRACON TOWER",
    "address": "7909 Karl May Dr",
    "city": "Waco",
    "state": "TX",
    "zip": "76708",
    "phone": "254-759-3015",
    "hours": "0600-0000",
    "travelDays": "1",
    "lat": "31.60754",
    "long": "-97.219666"
  },
  {
    "facId": "ACY",
    "name": "Atlantic City Tower",
    "level": "6",
    "type": "COMBINED TRACON TOWER",
    "address": "Atlantic City International Airport",
    "city": "Atlantic City",
    "state": "NJ",
    "zip": "8405",
    "phone": "603-641-3940",
    "hours": "0000-2359",
    "travelDays": "4",
    "lat": "39.455563",
    "long": "-74.58804"
  },
  {
    "facId": "ADS",
    "name": "Addison Tower",
    "level": "6",
    "type": "TOWER WITH RADAR",
    "address": "16000 Dooley Rd",
    "city": "Addison",
    "state": "TX",
    "zip": "75001",
    "phone": "972-628-2403",
    "hours": "0600-2200",
    "travelDays": "1",
    "lat": "32.967854",
    "long": "-96.83841"
  },
  {
    "facId": "ADW",
    "name": "Andrews Tower",
    "level": "5",
    "type": "TOWER WITH RADAR",
    "address": "FAA Andrews Air Base ATCT",
    "city": "Andrews AFB",
    "state": "MD",
    "zip": "20762",
    "phone": "240-312-4096",
    "hours": "0000-2359",
    "travelDays": "3",
    "lat": "38.80519",
    "long": "-76.87741"
  },
  {
    "facId": "AFW",
    "name": "Alliance Tower",
    "level": "6",
    "type": "TOWER WITH RADAR",
    "address": "2300 Alliance Blvd",
    "city": "Fort Worth",
    "state": "TX",
    "zip": "76177",
    "phone": "817-491-6100",
    "hours": "0000-2359",
    "travelDays": "1",
    "lat": "32.986794",
    "long": "-97.312874"
  },
  {
    "facId": "AGC",
    "name": "Allegheny Tower",
    "level": "4",
    "type": "TOWER WITH RADAR",
    "address": "12 Allegheny County Airport",
    "city": "West Mifflin",
    "state": "PA",
    "zip": "15122",
    "phone": "412-461-4388",
    "hours": "0000-2359",
    "travelDays": "3",
    "lat": "40.35061",
    "long": "-79.927025"
  },
  {
    "facId": "AGS",
    "name": "Augusta Tower",
    "level": "5",
    "type": "COMBINED TRACON TOWER",
    "address": "1540 Hangar Rd",
    "city": "Augusta",
    "state": "GA",
    "zip": "30906",
    "phone": "706-798-5198",
    "hours": "0645-2300",
    "travelDays": "3",
    "lat": "33.369617",
    "long": "-81.971674"
  },
  {
    "facId": "ALB",
    "name": "Albany Tower",
    "level": "6",
    "type": "COMBINED TRACON TOWER",
    "address": "128 Sicker Rd",
    "city": "Latham",
    "state": "NY",
    "zip": "12110",
    "phone": "518-862-1600",
    "hours": "0000-2359",
    "travelDays": "4",
    "lat": "42.751377",
    "long": "-73.80147"
  },
  {
    "facId": "ALO",
    "name": "Waterloo Tower",
    "level": "5",
    "type": "COMBINED TRACON TOWER",
    "address": "2740 Livingston La",
    "city": "Waterloo",
    "state": "IA",
    "zip": "50703",
    "phone": "319-233-7230",
    "hours": "0600-2000",
    "travelDays": "2",
    "lat": "42.550556",
    "long": "-92.39454"
  },
  {
    "facId": "AMA",
    "name": "Amarillo Tower",
    "level": "6",
    "type": "COMBINED TRACON TOWER",
    "address": "2000 English Rd",
    "city": "Amarillo",
    "state": "TX",
    "zip": "79108",
    "phone": "806-335-4090",
    "hours": "0600-0000",
    "travelDays": "1",
    "lat": "35.23306",
    "long": "-101.70626"
  },
  {
    "facId": "ANC",
    "name": "Anchorage Tower",
    "level": "8",
    "type": "TOWER WITH RADAR",
    "address": "5200 W International Airport Rd",
    "city": "Anchorage",
    "state": "AK",
    "zip": "99502",
    "phone": "907-271-2700",
    "hours": "0000-2359",
    "travelDays": "9",
    "lat": "61.17735",
    "long": "-149.97821"
  },
  {
    "facId": "APA",
    "name": "Centennial Tower",
    "level": "8",
    "type": "TOWER WITH RADAR",
    "address": "7800 S Peoria St E Wing",
    "city": "Englewood",
    "state": "CO",
    "zip": "80112",
    "phone": "720-873-2770",
    "hours": "0000-2359",
    "travelDays": "2",
    "lat": "39.575131",
    "long": "-104.84536"
  },
  {
    "facId": "APC",
    "name": "Napa Tower",
    "level": "4",
    "type": "TOWER WITH RADAR",
    "address": "4000 Airport Rd",
    "city": "Napa",
    "state": "CA",
    "zip": "94558",
    "phone": "707-255-1533",
    "hours": "0700-2000",
    "travelDays": "4",
    "lat": "38.20654",
    "long": "-122.27591"
  },
  {
    "facId": "ARB",
    "name": "Ann Arbor Tower",
    "level": "5",
    "type": "TOWER WITH RADAR",
    "address": "875 Airport Blvd",
    "city": "Ann Arbor",
    "state": "MI",
    "zip": "48108",
    "phone": "734- 769-1830",
    "hours": "0800-2000",
    "travelDays": "3",
    "lat": "42.22592",
    "long": "-83.74826"
  },
  {
    "facId": "ARR",
    "name": "Aurora Tower",
    "level": "4",
    "type": "TOWER WITH RADAR",
    "address": "43 W 690 US 30",
    "city": "Sugar Grove",
    "state": "IL",
    "zip": "60554",
    "phone": "630-466-5610",
    "hours": "0700-2100",
    "travelDays": "2",
    "lat": "41.768181",
    "long": "-88.467139"
  },
  {
    "facId": "ASE",
    "name": "Aspen Tower",
    "level": "5",
    "type": "COMBINED TRACON TOWER",
    "address": "150 W Airport Rd",
    "city": "Aspen",
    "state": "CO",
    "zip": "81611",
    "phone": "970-925-3703",
    "hours": "ATCT 0700-2200, TRACON 0700-2000",
    "travelDays": "2",
    "lat": "39.22004",
    "long": "-106.864265"
  },
  {
    "facId": "ATL",
    "name": "Atlanta Tower",
    "level": "12",
    "type": "TOWER WITH RADAR",
    "address": "1106 M H Jackson Service Rd",
    "city": "Atlanta",
    "state": "GA",
    "zip": "30354",
    "phone": "404-559-5800",
    "hours": "0000-2359",
    "travelDays": "2",
    "lat": "33.640156",
    "long": "-84.396774"
  },
  {
    "facId": "AUS",
    "name": "Austin Tower",
    "level": "9",
    "type": "COMBINED TRACON TOWER",
    "address": "10102 Aircraft Ln",
    "city": "Austin",
    "state": "TX",
    "zip": "78719",
    "phone": "512-369-7800",
    "hours": "0000-2359",
    "travelDays": "1",
    "lat": "30.19608",
    "long": "-97.66543"
  },
  {
    "facId": "AVL",
    "name": "Asheville Tower",
    "level": "6",
    "type": "COMBINED TRACON TOWER",
    "address": "61 Terminal Dr",
    "city": "Fletcher",
    "state": "NC",
    "zip": "28732",
    "phone": "828-684-0421",
    "hours": "0630-2300",
    "travelDays": "3",
    "lat": "35.43443",
    "long": "-82.53724"
  },
  {
    "facId": "AVP",
    "name": "Wilkes-Barre Tower",
    "level": "6",
    "type": "COMBINED TRACON TOWER",
    "address": "534 Lidy Rd",
    "city": "Dupont",
    "state": "PA",
    "zip": "18641",
    "phone": "570-655-7500",
    "hours": "0000-2359",
    "travelDays": "3",
    "lat": "41.32794",
    "long": "-75.73436"
  },
  {
    "facId": "AZO",
    "name": "Kalamazoo Tower",
    "level": "7",
    "type": "COMBINED TRACON TOWER",
    "address": "5400 Aviation Dr",
    "city": "Portgage",
    "state": "MI",
    "zip": "49002",
    "phone": "269-459-3350",
    "hours": "0600-2300",
    "travelDays": "2",
    "lat": "42.238108",
    "long": "-85.547812"
  },
  {
    "facId": "BDL",
    "name": "Bradley Tower",
    "level": "5",
    "type": "TOWER WITH RADAR",
    "address": "35 Perimeter Rd",
    "city": "Windsor Locks",
    "state": "CT",
    "zip": "6096",
    "phone": "860-386-3500",
    "hours": "0000-2359",
    "travelDays": "4",
    "lat": "41.945976",
    "long": "-72.68602"
  },
  {
    "facId": "BED",
    "name": "Hanscom Tower",
    "level": "6",
    "type": "TOWER WITH RADAR",
    "address": "LG Hanscom Field",
    "city": "Bedford",
    "state": "MA",
    "zip": "1731",
    "phone": "781-372-5500",
    "hours": "0700-2300",
    "travelDays": "4",
    "lat": "42.465227",
    "long": "-71.288573"
  },
  {
    "facId": "BFI",
    "name": "Boeing Tower",
    "level": "7",
    "type": "TOWER WITH RADAR",
    "address": "8200 E Marginal Way",
    "city": "Seattle",
    "state": "WA",
    "zip": "98108",
    "phone": "206-658-6400",
    "hours": "0000-2359",
    "travelDays": "5",
    "lat": "47.529196",
    "long": "-122.304306"
  },
  {
    "facId": "BFL",
    "name": "Bakersfield Tower",
    "level": "6",
    "type": "COMBINED TRACON TOWER",
    "address": "1547 Boughton Dr",
    "city": "Bakersfield",
    "state": "CA",
    "zip": "93308",
    "phone": "661-399-3531",
    "hours": "0600-2300",
    "travelDays": "3",
    "lat": "35.434147",
    "long": "-119.04622"
  },
  {
    "facId": "BGM",
    "name": "Binghamton Tower",
    "level": "5",
    "type": "COMBINED TRACON TOWER",
    "address": "2534 Airport Rd",
    "city": "Johnson City",
    "state": "NY",
    "zip": "13790",
    "phone": "607-729-6145",
    "hours": "0600-0000",
    "travelDays": "4",
    "lat": "42.20997",
    "long": "-75.98741"
  },
  {
    "facId": "BGR",
    "name": "Bangor Tower",
    "level": "5",
    "type": "COMBINED TRACON TOWER",
    "address": "617 Griffin Rd",
    "city": "Bangor",
    "state": "ME",
    "zip": "4401",
    "phone": "207-561-2500",
    "hours": "0000-2359",
    "travelDays": "5",
    "lat": "44.81219",
    "long": "-68.82194"
  },
  {
    "facId": "BHM",
    "name": "Birmingham Tower",
    "level": "8",
    "type": "COMBINED TRACON TOWER",
    "address": "5900 Messer Airport Hwy",
    "city": "Birmingham",
    "state": "AL",
    "zip": "35212",
    "phone": "205-769-3900",
    "hours": "0000-2359",
    "travelDays": "2",
    "lat": "33.56016",
    "long": "-86.74917"
  },
  {
    "facId": "BIL",
    "name": "Billings Tower",
    "level": "6",
    "type": "COMBINED TRACON TOWER",
    "address": "1907 Terminal Cir",
    "city": "Bilings",
    "state": "MT",
    "zip": "59105",
    "phone": "406-255-2750",
    "hours": "0000-2359",
    "travelDays": "3",
    "lat": "45.8026",
    "long": "-108.53604"
  },
  {
    "facId": "BIS",
    "name": "Bismarck Tower",
    "level": "5",
    "type": "COMBINED TRACON TOWER",
    "address": "2301 University Dr",
    "city": "Bismark",
    "state": "ND",
    "zip": "58504",
    "phone": "701-223-8790",
    "hours": "0600-2359",
    "travelDays": "2",
    "lat": "46.76501",
    "long": "-100.76323"
  },
  {
    "facId": "BJC",
    "name": "Rocky Mountain Metro Tower",
    "level": "7",
    "type": "TOWER WITH RADAR",
    "address": "11001 Control Tower Dr",
    "city": "Westminster",
    "state": "CO",
    "zip": "80021",
    "phone": "720-633-8600",
    "hours": "0600-2200",
    "travelDays": "2",
    "lat": "39.906405",
    "long": "-105.12091"
  },
  {
    "facId": "BNA",
    "name": "Nashville Tower",
    "level": "9",
    "type": "COMBINED TRACON TOWER",
    "address": "515 Olen Taylor Dr",
    "city": "Nashville",
    "state": "TN",
    "zip": "37217",
    "phone": "615-695-4500",
    "hours": "0000-2359",
    "travelDays": "2",
    "lat": "36.11736",
    "long": "-86.67462"
  },
  {
    "facId": "BOI",
    "name": "Boise Tower",
    "level": "8",
    "type": "COMBINED TRACON TOWER",
    "address": "3001 W Harvard St",
    "city": "Boise",
    "state": "ID",
    "zip": "83705",
    "phone": "208-364-5801",
    "hours": "0000-2359",
    "travelDays": "4",
    "lat": "43.557022",
    "long": "-116.21996"
  },
  {
    "facId": "BOS",
    "name": "Boston Tower",
    "level": "10",
    "type": "TOWER WITH RADAR",
    "address": "600 Control Tower",
    "city": "East Boston",
    "state": "MA",
    "zip": "2128",
    "phone": "617-455-3100",
    "hours": "0000-2359",
    "travelDays": "4",
    "lat": "42.365749",
    "long": "-71.018709"
  },
  {
    "facId": "BPT",
    "name": "Beaumont Tower",
    "level": "4",
    "type": "TOWER WITH RADAR",
    "address": "5040 W Airline Dr",
    "city": "Beaumont",
    "state": "TX",
    "zip": "77705",
    "phone": "409-720-5100",
    "hours": "0600-2200",
    "travelDays": "1",
    "lat": "29.955837",
    "long": "-94.020669"
  },
  {
    "facId": "BTR",
    "name": "Baton Rouge Tower",
    "level": "6",
    "type": "COMBINED TRACON TOWER",
    "address": "8326 Merle Gustafson Dr",
    "city": "Baton Rouge",
    "state": "LA",
    "zip": "70807",
    "phone": "225-354-2100",
    "hours": "0500-0000",
    "travelDays": "2",
    "lat": "30.523174",
    "long": "-91.14952"
  },
  {
    "facId": "BTV",
    "name": "Burlington Tower",
    "level": "6",
    "type": "COMBINED TRACON TOWER",
    "address": "1250 Airport Dr",
    "city": "South Burlington",
    "state": "VT",
    "zip": "5403",
    "phone": "802-657-4400",
    "hours": "0530-0000",
    "travelDays": "4",
    "lat": "44.473225",
    "long": "-73.15886"
  },
  {
    "facId": "BUF",
    "name": "Buffalo Tower",
    "level": "7",
    "type": "COMBINED TRACON TOWER",
    "address": "165 Holtz Dr",
    "city": "Cheektowaga",
    "state": "NY",
    "zip": "14225",
    "phone": "716-633-0660",
    "hours": "0000-2359",
    "travelDays": "3",
    "lat": "42.940495",
    "long": "-78.7176"
  },
  {
    "facId": "BUR",
    "name": "Burbank Tower",
    "level": "7",
    "type": "TOWER WITH RADAR",
    "address": "2821 N Hollywood Way",
    "city": "Burbank",
    "state": "CA",
    "zip": "91505",
    "phone": "818-567-4806",
    "hours": "0000-2359",
    "travelDays": "3",
    "lat": "34.199932",
    "long": "-118.34882"
  },
  {
    "facId": "BWI",
    "name": "Baltimore Tower",
    "level": "8",
    "type": "TOWER WITH RADAR",
    "address": "7062 Elm Rd",
    "city": "Baltimore",
    "state": "MD",
    "zip": "21240",
    "phone": "410-859-7255",
    "hours": "0000-2359",
    "travelDays": "3",
    "lat": "39.17918",
    "long": "-76.66837"
  },
  {
    "facId": "C90",
    "name": "Chicago TRACON",
    "level": "12",
    "type": "TRACON",
    "address": "1100 Bowes Rd",
    "city": "Elgin",
    "state": "IL",
    "zip": "60123",
    "phone": "847-608-5509",
    "hours": "0000-2359",
    "travelDays": "2",
    "lat": "42.010273",
    "long": "-88.302536"
  },
  {
    "facId": "CAE",
    "name": "Columbia Tower",
    "level": "6",
    "type": "COMBINED TRACON TOWER",
    "address": "2821 Aviation Way",
    "city": "West Columbia",
    "state": "SC",
    "zip": "29170",
    "phone": "803-822-4500",
    "hours": "0000-2359",
    "travelDays": "3",
    "lat": "33.9449",
    "long": "-81.11782"
  },
  {
    "facId": "CAK",
    "name": "Akron-Canton Tower",
    "level": "7",
    "type": "COMBINED TRACON TOWER",
    "address": "5400 Lauby Rd NW",
    "city": "North Canton",
    "state": "OH",
    "zip": "44720",
    "phone": "330-492-3801",
    "hours": "ATCT 0000-2359, TRACON 0600-0000",
    "travelDays": "3",
    "lat": "40.92375",
    "long": "-81.432655"
  },
  {
    "facId": "CCR",
    "name": "Concord Tower",
    "level": "5",
    "type": "TOWER WITH RADAR",
    "address": "201 John Glenn Dr",
    "city": "Concord",
    "state": "CA",
    "zip": "94520",
    "phone": "925-685-5743",
    "hours": "0700-2200",
    "travelDays": "4",
    "lat": "37.982174",
    "long": "-122.05614"
  },
  {
    "facId": "CDW",
    "name": "Caldwell Tower",
    "level": "5",
    "type": "TOWER WITH RADAR",
    "address": "31 Wright Way Ste #1",
    "city": "Fairfield",
    "state": "NJ",
    "zip": "7004",
    "phone": "973-575-6448",
    "hours": "0700-2300",
    "travelDays": "4",
    "lat": "40.876043",
    "long": "-74.277813"
  },
  {
    "facId": "CHA",
    "name": "Chatanooga Tower",
    "level": "6",
    "type": "COMBINED TRACON TOWER",
    "address": "5921 Pinehurst St",
    "city": "Chattanooga",
    "state": "TN",
    "zip": "37421",
    "phone": "423-855-6475",
    "hours": "0600-2350",
    "travelDays": "2",
    "lat": "35.029255",
    "long": "-85.20109"
  },
  {
    "facId": "CHS",
    "name": "Charleston Tower",
    "level": "8",
    "type": "COMBINED TRACON TOWER",
    "address": "5775 S Aviation Ave",
    "city": "Charleston",
    "state": "SC",
    "zip": "29406",
    "phone": "843-414-2800",
    "hours": "0000-2359",
    "travelDays": "3",
    "lat": "32.899498",
    "long": "-80.0301"
  },
  {
    "facId": "CID",
    "name": "Cedar Rapids Tower",
    "level": "5",
    "type": "COMBINED TRACON TOWER",
    "address": "9455 Shepard Ct SW",
    "city": "Cedar Rapids",
    "state": "IA",
    "zip": "52404",
    "phone": "319-364-2344",
    "hours": "0500-2330",
    "travelDays": "2",
    "lat": "41.888192",
    "long": "-91.705997"
  },
  {
    "facId": "CKB",
    "name": "Clarksburg Tower",
    "level": "5",
    "type": "COMBINED TRACON TOWER",
    "address": "2500 Aviation Way",
    "city": "Bridgeport",
    "state": "WV",
    "zip": "26330",
    "phone": "304-842-4465",
    "hours": "0600-2300 MON - FRI, 0700-2300 SAT - SUN",
    "travelDays": "3",
    "lat": "39.30003",
    "long": "-80.22915"
  },
  {
    "facId": "CLE",
    "name": "Cleveland Tower",
    "level": "8",
    "type": "COMBINED TRACON TOWER",
    "address": "5300 Riverside Dr",
    "city": "Cleveland",
    "state": "OH",
    "zip": "44135",
    "phone": "216-898-2020",
    "hours": "0000-2359",
    "travelDays": "3",
    "lat": "41.402002",
    "long": "-81.848066"
  },
  {
    "facId": "CLT",
    "name": "Charlotte Tower",
    "level": "12",
    "type": "COMBINED TRACON TOWER",
    "address": "5507 Josh BirMham Pkwy",
    "city": "Charlotte",
    "state": "NC",
    "zip": "28208",
    "phone": "704-359-1000",
    "hours": "0000-2359",
    "travelDays": "3",
    "lat": "35.223496",
    "long": "-80.944273"
  },
  {
    "facId": "CMA",
    "name": "Camarillo Tower",
    "level": "6",
    "type": "TOWER WITH RADAR",
    "address": "797 Aviation Dr",
    "city": "Camarillo",
    "state": "CA",
    "zip": "93010",
    "phone": "805-388-9730",
    "hours": "0700-2100",
    "travelDays": "3",
    "lat": "34.20954",
    "long": "-119.084915"
  },
  {
    "facId": "CMH",
    "name": "Columbus Tower",
    "level": "8",
    "type": "COMBINED TRACON TOWER",
    "address": "4277 International Gtwy",
    "city": "Columbus",
    "state": "OH",
    "zip": "43219",
    "phone": "614-338-4030",
    "hours": "0000-2359",
    "travelDays": "2",
    "lat": "39.998375",
    "long": "-82.892624"
  },
  {
    "facId": "CMI",
    "name": "Champaign Tower",
    "level": "5",
    "type": "COMBINED TRACON TOWER",
    "address": "1 Airport Rd",
    "city": "Savoy",
    "state": "IL",
    "zip": "61874",
    "phone": "217-355-4060",
    "hours": "0600-2300",
    "travelDays": "2",
    "lat": "40.03943",
    "long": "-88.25399"
  },
  {
    "facId": "CNO",
    "name": "Chino Tower",
    "level": "7",
    "type": "TOWER WITH RADAR",
    "address": "7000 Merrill Ave",
    "city": "Chino",
    "state": "CA",
    "zip": "91710",
    "phone": "909-597-1703",
    "hours": "0700-2100",
    "travelDays": "3",
    "lat": "33.983753",
    "long": "-117.65177"
  },
  {
    "facId": "COS",
    "name": "Colorado Springs Tower",
    "level": "8",
    "type": "COMBINED TRACON TOWER",
    "address": "460 Kincheloe Loop",
    "city": "Peterson AFB",
    "state": "CO",
    "zip": "80914",
    "phone": "719-380-6700",
    "hours": "0000-2359",
    "travelDays": "2",
    "lat": "38.816542",
    "long": "-104.699121"
  },
  {
    "facId": "CPR",
    "name": "Casper Tower",
    "level": "5",
    "type": "COMBINED TRACON TOWER",
    "address": "7710 Fuller St",
    "city": "Casper",
    "state": "WY",
    "zip": "82604",
    "phone": "307-472-8940",
    "hours": "0500-2100",
    "travelDays": "2",
    "lat": "42.902534",
    "long": "-106.45689"
  },
  {
    "facId": "CPS",
    "name": "Downtown Tower",
    "level": "5",
    "type": "TOWER WITH RADAR",
    "address": "9951 Molla Dr",
    "city": "Cahokia",
    "state": "IL",
    "zip": "62206",
    "phone": "618-337-2589",
    "hours": "0630-2200",
    "travelDays": "1",
    "lat": "38.570107",
    "long": "-90.16692"
  },
  {
    "facId": "CRP",
    "name": "Corpus Christi Tower",
    "level": "9",
    "type": "COMBINED TRACON TOWER",
    "address": "6902 McGloin Rd",
    "city": "Corpus Christi",
    "state": "TX",
    "zip": "78415",
    "phone": "361-299-4200",
    "hours": "0000-2359",
    "travelDays": "2",
    "lat": "27.760798",
    "long": "-97.503006"
  },
  {
    "facId": "CRQ",
    "name": "Palomar Tower",
    "level": "6",
    "type": "TOWER WITH RADAR",
    "address": "2200 Palomar Airport Rd",
    "city": "Carlsbad",
    "state": "CA",
    "zip": "92010",
    "phone": "760-438-4969",
    "hours": "0700-2200",
    "travelDays": "3",
    "lat": "33.125824",
    "long": "-117.27478"
  },
  {
    "facId": "CRW",
    "name": "Charleston Tower",
    "level": "5",
    "type": "COMBINED TRACON TOWER",
    "address": "100 Airport Rd",
    "city": "Charleston",
    "state": "WV",
    "zip": "25311",
    "phone": "304-347-5285",
    "hours": "0000-2359",
    "travelDays": "3",
    "lat": "38.368767",
    "long": "-81.59689"
  },
  {
    "facId": "CSG",
    "name": "Columbus Tower",
    "level": "4",
    "type": "TOWER WITH RADAR",
    "address": "3250 W Britt David Rd",
    "city": "Columbus",
    "state": "GA",
    "zip": "31909",
    "phone": "706-323-4363",
    "hours": "0900-2100",
    "travelDays": "2",
    "lat": "32.528637",
    "long": "-84.95622"
  },
  {
    "facId": "CVG",
    "name": "Cincinnati Tower",
    "level": "9",
    "type": "COMBINED TRACON TOWER",
    "address": "56 New Price Pike",
    "city": "Erlanger",
    "state": "KY",
    "zip": "41018",
    "phone": "859-372-6400",
    "hours": "0000-2359",
    "travelDays": "2",
    "lat": "39.016514",
    "long": "-84.60554"
  },
  {
    "facId": "D01",
    "name": "Denver TRACON",
    "level": "12",
    "type": "TRACON",
    "address": "26705 E 68th Ave",
    "city": "Denver",
    "state": "CO",
    "zip": "80249",
    "phone": "303-342-1500",
    "hours": "0000-2359",
    "travelDays": "2",
    "lat": "39.824596",
    "long": "-104.67624"
  },
  {
    "facId": "D10",
    "name": "Dallas - Ft Worth TRACON",
    "level": "12",
    "type": "TRACON",
    "address": "2401 International Pkwy",
    "city": "DFW Airport",
    "state": "TX",
    "zip": "75261",
    "phone": "972-615-2500",
    "hours": "0000-2359",
    "travelDays": "1",
    "lat": "32.896458",
    "long": "-97.04025"
  },
  {
    "facId": "D21",
    "name": "Detroit TRACON",
    "level": "11",
    "type": "TRACON",
    "address": "Detroit Metro Airport",
    "city": "Detriot",
    "state": "MI",
    "zip": "48242",
    "phone": "734-955-5000",
    "hours": "0000-2359",
    "travelDays": "3",
    "lat": "42.212633",
    "long": "-83.353975"
  },
  {
    "facId": "DAB",
    "name": "Daytona Beach Tower",
    "level": "10",
    "type": "COMBINED TRACON TOWER",
    "address": "2302 Bellevue Ave",
    "city": "Daytona Beach",
    "state": "FL",
    "zip": "32114",
    "phone": "386-226-3900",
    "hours": "0000-2359",
    "travelDays": "3",
    "lat": "29.174086",
    "long": "-81.058205"
  },
  {
    "facId": "DAL",
    "name": "Dallas Love Tower",
    "level": "8",
    "type": "TOWER WITH RADAR",
    "address": "8100 Aviation Pl",
    "city": "Dallas",
    "state": "TX",
    "zip": "75235",
    "phone": "214-353-1500",
    "hours": "0000-2359",
    "travelDays": "1",
    "lat": "32.839867",
    "long": "-96.84308"
  },
  {
    "facId": "DAY",
    "name": "Dayton Tower",
    "level": "4",
    "type": "TOWER WITH RADAR",
    "address": "3753 Cargo Rd",
    "city": "Vandalia",
    "state": "OH",
    "zip": "45377",
    "phone": "937-415-6800",
    "hours": "0000-2359",
    "travelDays": "2",
    "lat": "39.89915",
    "long": "-84.224915"
  },
  {
    "facId": "DCA",
    "name": "Washington National Tower",
    "level": "9",
    "type": "TOWER WITH RADAR",
    "address": "1 Aviation Circle",
    "city": "Washington",
    "state": "DC",
    "zip": "20001",
    "phone": "703-413-1530",
    "hours": "0000-2359",
    "travelDays": "3",
    "lat": "38.854579",
    "long": "-77.04376"
  },
  {
    "facId": "DEN",
    "name": "Denver Tower",
    "level": "12",
    "type": "TOWER WITH RADAR",
    "address": "8400 Pena Blvd Unit 492056",
    "city": "Denver",
    "state": "CO",
    "zip": "80249",
    "phone": "303-342-1600",
    "hours": "0000-2359",
    "travelDays": "2",
    "lat": "39.84961",
    "long": "-104.67268"
  },
  {
    "facId": "DFW",
    "name": "DFW Tower",
    "level": "12",
    "type": "TOWER WITH RADAR",
    "address": "2401 International Pkwy",
    "city": "DFW Airport",
    "state": "TX",
    "zip": "75261",
    "phone": "972-615-2600",
    "hours": "0000-2359",
    "travelDays": "1",
    "lat": "32.896866",
    "long": "-97.040389"
  },
  {
    "facId": "DLH",
    "name": "Duluth Tower",
    "level": "5",
    "type": "COMBINED TRACON TOWER",
    "address": "4525 Airport Approach Rd",
    "city": "Duluth",
    "state": "MN",
    "zip": "55811",
    "phone": "218-722-7326",
    "hours": "0000-2359",
    "travelDays": "2",
    "lat": "46.833878",
    "long": "-92.19311"
  },
  {
    "facId": "DPA",
    "name": "Dupage Tower",
    "level": "6",
    "type": "TOWER WITH RADAR",
    "address": "2710 International Dr",
    "city": "West Chicago",
    "state": "IL",
    "zip": "60185",
    "phone": "630-587-7800",
    "hours": "0000-2359",
    "travelDays": "2",
    "lat": "41.907055",
    "long": "-88.255554"
  },
  {
    "facId": "DSM",
    "name": "Des Moines Tower",
    "level": "7",
    "type": "COMBINED TRACON TOWER",
    "address": "3000 McKinley Ave",
    "city": "Des Moines",
    "state": "IA",
    "zip": "50321",
    "phone": "515-974-8010",
    "hours": "0000-2359",
    "travelDays": "2",
    "lat": "41.54093",
    "long": "-93.65924"
  },
  {
    "facId": "DTW",
    "name": "Detroit Tower",
    "level": "11",
    "type": "TOWER WITH RADAR",
    "address": "Detroit Metro Airport Bldg 801",
    "city": "Detroit",
    "state": "MI",
    "zip": "48242",
    "phone": "734-955-5000",
    "hours": "0000-2359",
    "travelDays": "3",
    "lat": "42.21278",
    "long": "-83.354458"
  },
  {
    "facId": "DVT",
    "name": "Deer Valley Tower",
    "level": "9",
    "type": "TOWER WITH RADAR",
    "address": "705 W Airport Blvd",
    "city": "Phoenix",
    "state": "AZ",
    "zip": "85027",
    "phone": "623-581-1492",
    "hours": "0600-2359",
    "travelDays": "3",
    "lat": "33.69289",
    "long": "-112.08518"
  },
  {
    "facId": "DWH",
    "name": "Hooks Tower",
    "level": "6",
    "type": "TOWER WITH RADAR",
    "address": "9125 Boudreaux Rd",
    "city": "Tomball",
    "state": "TX",
    "zip": "77375",
    "phone": "281-376-9721",
    "hours": "0700-2200",
    "travelDays": "1",
    "lat": "30.067018",
    "long": "-95.555973"
  },
  {
    "facId": "ELM",
    "name": "Elmira Tower",
    "level": "5",
    "type": "COMBINED TRACON TOWER",
    "address": "276 Sing Sing Rd",
    "city": "Horseheads",
    "state": "NY",
    "zip": "14845",
    "phone": "607-739-1971",
    "hours": "0600-0000",
    "travelDays": "3",
    "lat": "42.162693",
    "long": "-76.89821"
  },
  {
    "facId": "ELP",
    "name": "El Paso Tower",
    "level": "7",
    "type": "COMBINED TRACON TOWER",
    "address": "2050 Hawkins Blvd",
    "city": "El Paso",
    "state": "TX",
    "zip": "79925",
    "phone": "915-774-9400",
    "hours": "0000-2359",
    "travelDays": "2",
    "lat": "31.798044",
    "long": "-106.37271"
  },
  {
    "facId": "EMT",
    "name": "El Monte Tower",
    "level": "5",
    "type": "TOWER WITH RADAR",
    "address": "4500 Riverview Ave",
    "city": "El Monte",
    "state": "CA",
    "zip": "91731",
    "phone": "626-442-4390",
    "hours": "0800-2000",
    "travelDays": "3",
    "lat": "34.088486",
    "long": "-118.0317"
  },
  {
    "facId": "ERI",
    "name": "Erie Tower",
    "level": "4",
    "type": "COMBINED TRACON TOWER",
    "address": "4411 W 12th St",
    "city": "Erie",
    "state": "PA",
    "zip": "16505",
    "phone": "814-833-0841",
    "hours": "0600-0000",
    "travelDays": "3",
    "lat": "42.084103",
    "long": "-80.18283"
  },
  {
    "facId": "EUG",
    "name": "Eugene Tower",
    "level": "6",
    "type": "COMBINED TRACON TOWER",
    "address": "28833 Douglas Dr",
    "city": "Eugene",
    "state": "OR",
    "zip": "97402",
    "phone": "541-607-4600",
    "hours": "0600-2330",
    "travelDays": "5",
    "lat": "44.117598",
    "long": "-123.212759"
  },
  {
    "facId": "EVV",
    "name": "Evansville Tower",
    "level": "5",
    "type": "COMBINED TRACON TOWER",
    "address": "7405 Indianapolis Rd",
    "city": "Evansville",
    "state": "IN",
    "zip": "47725",
    "phone": "812-436-4660",
    "hours": "0600-2300",
    "travelDays": "2",
    "lat": "38.044869",
    "long": "-87.529469"
  },
  {
    "facId": "EWR",
    "name": "Newark Tower",
    "level": "11",
    "type": "TOWER WITH RADAR",
    "address": "118 Flagpole Rd",
    "city": "Newark",
    "state": "NJ",
    "zip": "7114",
    "phone": "973-565-5000",
    "hours": "0000-2359",
    "travelDays": "4",
    "lat": "40.692529",
    "long": "-74.182941"
  },
  {
    "facId": "F11",
    "name": "Central Florida TRACON",
    "level": "11",
    "type": "TRACON",
    "address": "9399 Jeff Fuqua Blvd S",
    "city": "Orlando",
    "state": "FL",
    "zip": "32827",
    "phone": "407-852-7570",
    "hours": "0000-2359",
    "travelDays": "3",
    "lat": "28.431326",
    "long": "-81.30512"
  },
  {
    "facId": "FAI",
    "name": "Fairbanks Tower",
    "level": "7",
    "type": "COMBINED TRACON TOWER",
    "address": "3800 University Ave S",
    "city": "Fairbanks",
    "state": "AK",
    "zip": "99709",
    "phone": "907-474-0050",
    "hours": "0000-2359",
    "travelDays": "9",
    "lat": "64.81098",
    "long": "-147.84708"
  },
  {
    "facId": "FAR",
    "name": "Fargo Tower",
    "level": "6",
    "type": "COMBINED TRACON TOWER",
    "address": "3101 Dakota Dr",
    "city": "Fargo",
    "state": "ND",
    "zip": "58102",
    "phone": "701-239-5188",
    "hours": "ATCT 0000-2359, TRACON 0600-2259",
    "travelDays": "2",
    "lat": "46.90662",
    "long": "-96.822556"
  },
  {
    "facId": "FAT",
    "name": "Fresno Tower",
    "level": "7",
    "type": "COMBINED TRACON TOWER",
    "address": "5055 E Anderson Ave",
    "city": "Fresno",
    "state": "CA",
    "zip": "93727",
    "phone": "559-487-5405",
    "hours": "0000-2359",
    "travelDays": "4",
    "lat": "36.77361",
    "long": "-119.72433"
  },
  {
    "facId": "FAY",
    "name": "Fayetteville Tower",
    "level": "6",
    "type": "COMBINED TRACON TOWER",
    "address": "3041 Control Tower Rd",
    "city": "Fayetteville",
    "state": "NC",
    "zip": "28306",
    "phone": "910-484-6723",
    "hours": "0000-2359",
    "travelDays": "3",
    "lat": "34.991886",
    "long": "-78.88525"
  },
  {
    "facId": "FCM",
    "name": "Flying Cloud Tower",
    "level": "5",
    "type": "TOWER WITH RADAR",
    "address": "10110 Flying Cloud Dr",
    "city": "Eden Prairie",
    "state": "MN",
    "zip": "55347",
    "phone": "952-941-1188",
    "hours": "0700-2200 APR-OCT, 0700-2100 NOV-MAR",
    "travelDays": "2",
    "lat": "44.821742",
    "long": "-93.458352"
  },
  {
    "facId": "FFZ",
    "name": "Falcon Tower",
    "level": "8",
    "type": "TOWER WITH RADAR",
    "address": "4822 E Falcon Dr",
    "city": "Mesa",
    "state": "AZ",
    "zip": "85215",
    "phone": "480-981-1376",
    "hours": "0600-2100",
    "travelDays": "2",
    "lat": "33.45266",
    "long": "-111.72829"
  },
  {
    "facId": "FLL",
    "name": "Fort Lauderdale Tower",
    "level": "8",
    "type": "TOWER WITH RADAR",
    "address": "4150 SW 12th Ter",
    "city": "Fort Lauderdale",
    "state": "FL",
    "zip": "33315",
    "phone": "954-921-9200",
    "hours": "0000-2359",
    "travelDays": "4",
    "lat": "26.07277",
    "long": "-80.1575"
  },
  {
    "facId": "FLO",
    "name": "Florence Tower",
    "level": "5",
    "type": "COMBINED TRACON TOWER",
    "address": "2085 Terminal Dr",
    "city": "Florence",
    "state": "SC",
    "zip": "29506",
    "phone": "843-665-0632",
    "hours": "0630-2200",
    "travelDays": "3",
    "lat": "34.194355",
    "long": "-79.72702"
  },
  {
    "facId": "FNT",
    "name": "Flint Tower",
    "level": "4",
    "type": "COMBINED TRACON TOWER",
    "address": "3900 W Maple Rd",
    "city": "Flint",
    "state": "MI",
    "zip": "48507",
    "phone": "810-342-7800",
    "hours": "0545-2330",
    "travelDays": "3",
    "lat": "42.96177",
    "long": "-83.75108"
  },
  {
    "facId": "FPR",
    "name": "St Lucie Tower",
    "level": "7",
    "type": "TOWER WITH RADAR",
    "address": "3300 Hammond Rd",
    "city": "Fort Pierce",
    "state": "FL",
    "zip": "34946",
    "phone": "772-465-0761",
    "hours": "0700-2100",
    "travelDays": "3",
    "lat": "27.490812",
    "long": "-80.37401"
  },
  {
    "facId": "FRG",
    "name": "Farmingdale Tower",
    "level": "7",
    "type": "TOWER WITH RADAR",
    "address": "7170 Republic Airport",
    "city": "Farmingdale",
    "state": "NY",
    "zip": "11735",
    "phone": "631-454-2332",
    "hours": "0700-2300",
    "travelDays": "4",
    "lat": "40.72089",
    "long": "-73.41779"
  },
  {
    "facId": "FSD",
    "name": "Sioux Falls Tower",
    "level": "6",
    "type": "COMBINED TRACON TOWER",
    "address": "2601 N Jaycee Ln",
    "city": "Sioux Falls",
    "state": "SD",
    "zip": "57104",
    "phone": "605-338-4841",
    "hours": "0500-0000",
    "travelDays": "2",
    "lat": "43.5827",
    "long": "-96.73179"
  },
  {
    "facId": "FSM",
    "name": "Fort Smith Tower",
    "level": "7",
    "type": "COMBINED TRACON TOWER",
    "address": "5100 S 66th St",
    "city": "Fort Smith",
    "state": "AR",
    "zip": "72903",
    "phone": "479-649-2400",
    "hours": "0530-2300",
    "travelDays": "1",
    "lat": "35.333874",
    "long": "-94.36185"
  },
  {
    "facId": "FTW",
    "name": "Meacham Tower",
    "level": "6",
    "type": "TOWER WITH RADAR",
    "address": "4100 N Lincoln Ave",
    "city": "Fort Worth",
    "state": "TX",
    "zip": "76106",
    "phone": "817-740-3300",
    "hours": "0000-2359",
    "travelDays": "1",
    "lat": "32.813904",
    "long": "-97.36304"
  },
  {
    "facId": "FWA",
    "name": "Fort Wayne Tower",
    "level": "5",
    "type": "COMBINED TRACON TOWER",
    "address": "3817 Winters Rd",
    "city": "Fort Wayne",
    "state": "IN",
    "zip": "46809",
    "phone": "260-479-6500",
    "hours": "0000-2359",
    "travelDays": "2",
    "lat": "40.974575",
    "long": "-85.18714"
  },
  {
    "facId": "FXE",
    "name": "Fort Lauderdale Exec. Tower",
    "level": "7",
    "type": "TOWER WITH RADAR",
    "address": "5550 NW 23rd Ave",
    "city": "Fort Lauderdale",
    "state": "FL",
    "zip": "33309",
    "phone": "954-776-1046",
    "hours": "0000-2359",
    "travelDays": "4",
    "lat": "26.195402",
    "long": "-80.17355"
  },
  {
    "facId": "GCN",
    "name": "Grand Canyon Tower",
    "level": "5",
    "type": "TOWER WITH RADAR",
    "address": "1393 Liberator Dr",
    "city": "Grand Canyon",
    "state": "AZ",
    "zip": "86023",
    "phone": "928-638-2850",
    "hours": "0700-1900 Oct-May , 0600-2000 Jun-Sep",
    "travelDays": "2",
    "lat": "35.95164",
    "long": "-112.142239"
  },
  {
    "facId": "GEG",
    "name": "Spokane Tower",
    "level": "7",
    "type": "COMBINED TRACON TOWER",
    "address": "8314 W Electric Ave",
    "city": "Spokane",
    "state": "WA",
    "zip": "99224",
    "phone": "509-742-2500",
    "hours": "0000-2359",
    "travelDays": "4",
    "lat": "47.612667",
    "long": "-117.528046"
  },
  {
    "facId": "GFK",
    "name": "Grand Forks Tower",
    "level": "9",
    "type": "TOWER WITH RADAR",
    "address": "2780 Airport Dr RR #2",
    "city": "Grand Forks",
    "state": "ND",
    "zip": "58203",
    "phone": "701-792-4260",
    "hours": "0600-2330",
    "travelDays": "2",
    "lat": "47.948858",
    "long": "-97.173887"
  },
  {
    "facId": "GGG",
    "name": "Longview Tower",
    "level": "6",
    "type": "COMBINED TRACON TOWER",
    "address": "214 Tower Rd",
    "city": "Longview",
    "state": "TX",
    "zip": "75603",
    "phone": "903-643-4015",
    "hours": "0600-2200",
    "travelDays": "1",
    "lat": "32.379895",
    "long": "-94.712605"
  },
  {
    "facId": "GPT",
    "name": "Gulfport Tower",
    "level": "7",
    "type": "COMBINED TRACON TOWER",
    "address": "4445 10th Ave",
    "city": "Gulfport",
    "state": "MS",
    "zip": "39501",
    "phone": "228-265-6100",
    "hours": "0600-2300",
    "travelDays": "2",
    "lat": "30.4012",
    "long": "-89.07375"
  },
  {
    "facId": "GRB",
    "name": "Green Bay Tower",
    "level": "6",
    "type": "COMBINED TRACON TOWER",
    "address": "2077 Airport Dr",
    "city": "Green Bay",
    "state": "WI",
    "zip": "54313",
    "phone": "920-431-5751",
    "hours": "0530-2330",
    "travelDays": "3",
    "lat": "44.496002",
    "long": "-88.11974"
  },
  {
    "facId": "GRR",
    "name": "Grand Rapids Tower",
    "level": "5",
    "type": "COMBINED TRACON TOWER",
    "address": "5500 44th St SE",
    "city": "Grand Rapids",
    "state": "MI",
    "zip": "49512",
    "phone": "616-575-1902",
    "hours": "0530-0000",
    "travelDays": "2",
    "lat": "42.88416",
    "long": "-85.52964"
  },
  {
    "facId": "GSO",
    "name": "Greensboro Tower",
    "level": "7",
    "type": "COMBINED TRACON TOWER",
    "address": "1321 S Terminal Rd",
    "city": "Greensboro",
    "state": "NC",
    "zip": "27409",
    "phone": "336-358-3440",
    "hours": "0000-2359",
    "travelDays": "3",
    "lat": "36.100918",
    "long": "-79.941145"
  },
  {
    "facId": "GSP",
    "name": "Greer Tower",
    "level": "7",
    "type": "COMBINED TRACON TOWER",
    "address": "2000 GSP Dr",
    "city": "Greer",
    "state": "SC",
    "zip": "29651",
    "phone": "864-879-2155",
    "hours": "0600-2345",
    "travelDays": "3",
    "lat": "34.878906",
    "long": "-82.22441"
  },
  {
    "facId": "GTF",
    "name": "Great Falls Tower",
    "level": "5",
    "type": "COMBINED TRACON TOWER",
    "address": "2830 Airport Ave A",
    "city": "Great Falls",
    "state": "MT",
    "zip": "59404",
    "phone": "406-454-7500",
    "hours": "0000-2359",
    "travelDays": "4",
    "lat": "47.480063",
    "long": "-111.359468"
  },
  {
    "facId": "HCF",
    "name": "Honolulu Control Facility",
    "level": "11",
    "type": "COMBINED CONTROL FAC.",
    "address": "760 Worchester Ave",
    "city": "Honolulu",
    "state": "HI",
    "zip": "96818",
    "phone": "808-840-6100",
    "hours": "0000-2359",
    "travelDays": "X",
    "lat": "21.319256",
    "long": "-157.94348"
  },
  {
    "facId": "HEF",
    "name": "Manassas Tower",
    "level": "5",
    "type": "TOWER WITH RADAR",
    "address": "10603 Observation Rd",
    "city": "Manassas",
    "state": "VA",
    "zip": "20110",
    "phone": "703-361-5800",
    "hours": "0630-2230",
    "travelDays": "3",
    "lat": "38.72197",
    "long": "-77.52028"
  },
  {
    "facId": "HIO",
    "name": "Hillsboro Tower",
    "level": "7",
    "type": "TOWER WITH RADAR",
    "address": "3119 NE Cornell Rd",
    "city": "Hillsboro",
    "state": "OR",
    "zip": "97124",
    "phone": "503-615-5470",
    "hours": "0600-2200",
    "travelDays": "5",
    "lat": "45.530663",
    "long": "-122.95592"
  },
  {
    "facId": "HLN",
    "name": "Helena Tower",
    "level": "5",
    "type": "NON-RADAR APP/TOWER",
    "address": "3100 Airport Rd",
    "city": "Helena",
    "state": "MT",
    "zip": "59601",
    "phone": "406-449-5756",
    "hours": "0600-2200",
    "travelDays": "4",
    "lat": "46.60215",
    "long": "-111.98297"
  },
  {
    "facId": "HOU",
    "name": "Hobby Tower",
    "level": "8",
    "type": "TOWER WITH RADAR",
    "address": "8410 Lockheed Ave",
    "city": "Houston",
    "state": "TX",
    "zip": "77061",
    "phone": "713-847-1400",
    "hours": "0000-2359",
    "travelDays": "1",
    "lat": "29.645914",
    "long": "-95.287735"
  },
  {
    "facId": "HPN",
    "name": "Westchester Tower",
    "level": "7",
    "type": "TOWER WITH RADAR",
    "address": "91 Tower Rd",
    "city": "White Plains",
    "state": "NY",
    "zip": "10604",
    "phone": "914-948-6520",
    "hours": "0600-2300",
    "travelDays": "4",
    "lat": "41.06053",
    "long": "-73.718796"
  },
  {
    "facId": "HSV",
    "name": "Huntsville Tower",
    "level": "7",
    "type": "COMBINED TRACON TOWER",
    "address": "1000 E Boeing Cir",
    "city": "Huntsville",
    "state": "AL",
    "zip": "35824",
    "phone": "256-542-2060",
    "hours": "0600-0000 TUE-SAT, SUN 0600-TUE 0000",
    "travelDays": "2",
    "lat": "34.638943",
    "long": "-86.77219"
  },
  {
    "facId": "HTS",
    "name": "Huntington Tower",
    "level": "5",
    "type": "COMBINED TRACON TOWER",
    "address": "1471 Airport Rd",
    "city": "Huntington",
    "state": "WV",
    "zip": "25704",
    "phone": "304-453-1201",
    "hours": "0000-2359",
    "travelDays": "2",
    "lat": "38.37022",
    "long": "-82.55581"
  },
  {
    "facId": "HUF",
    "name": "Terre Haute Tower",
    "level": "5",
    "type": "COMBINED TRACON TOWER",
    "address": "580 Airport St",
    "city": "Terre Haute",
    "state": "IN",
    "zip": "47803",
    "phone": "812-877-7730",
    "hours": "0000-2359",
    "travelDays": "2",
    "lat": "39.460377",
    "long": "-87.30309"
  },
  {
    "facId": "HWD",
    "name": "Hayward Tower",
    "level": "6",
    "type": "TOWER WITH RADAR",
    "address": "20305 Skywest Dr",
    "city": "Hayward",
    "state": "CA",
    "zip": "94541",
    "phone": "510-785-5248",
    "hours": "0700-2100",
    "travelDays": "4",
    "lat": "37.66321",
    "long": "-122.11974"
  },
  {
    "facId": "I90",
    "name": "Houston TRACON",
    "level": "12",
    "type": "TRACON",
    "address": "4005 Greens Rd",
    "city": "Houston",
    "state": "TX",
    "zip": "77032",
    "phone": "281-443-5840",
    "hours": "0000-2359",
    "travelDays": "1",
    "lat": "29.954588",
    "long": "-95.321137"
  },
  {
    "facId": "IAD",
    "name": "Dulles Tower",
    "level": "9",
    "type": "TOWER WITH RADAR",
    "address": "24525 Willard Rd",
    "city": "Dulles",
    "state": "VA",
    "zip": "20166",
    "phone": "571-323-6351",
    "hours": "0000-2359",
    "travelDays": "3",
    "lat": "38.938973",
    "long": "-77.448653"
  },
  {
    "facId": "IAH",
    "name": "Houston Intercontinental Tower",
    "level": "11",
    "type": "TOWER WITH RADAR",
    "address": "4215 Will Clayton Pkwy",
    "city": "Houston",
    "state": "TX",
    "zip": "77032",
    "phone": "281-209-8600",
    "hours": "0000-2359",
    "travelDays": "1",
    "lat": "29.984102",
    "long": "-95.328384"
  },
  {
    "facId": "ICT",
    "name": "Wichita Tower",
    "level": "8",
    "type": "COMBINED TRACON TOWER",
    "address": "2196 S Airport Rd",
    "city": "Wichita",
    "state": "KS",
    "zip": "67209",
    "phone": "316-350-1500",
    "hours": "0000-2359",
    "travelDays": "1",
    "lat": "37.65559",
    "long": "-97.426186"
  },
  {
    "facId": "ILG",
    "name": "Wilmington Tower",
    "level": "4",
    "type": "TOWER WITH RADAR",
    "address": "#1 DRBA Way",
    "city": "New Castle",
    "state": "DE",
    "zip": "19720",
    "phone": "302-324-0265",
    "hours": "0630-2300",
    "travelDays": "3",
    "lat": "39.677704",
    "long": "-75.599394"
  },
  {
    "facId": "ILM",
    "name": "Wilmington Tower",
    "level": "7",
    "type": "COMBINED TRACON TOWER",
    "address": "2220 Control Tower Dr",
    "city": "Wilmington",
    "state": "NC",
    "zip": "28405",
    "phone": "910-815-4530",
    "hours": "0600-2300",
    "travelDays": "3",
    "lat": "34.26564",
    "long": "-77.8977"
  },
  {
    "facId": "IND",
    "name": "Indianapolis Tower",
    "level": "8",
    "type": "COMBINED TRACON TOWER",
    "address": "8100 Col H Weir Cook Memorial Dr S",
    "city": "Indianapolis",
    "state": "IN",
    "zip": "46241",
    "phone": "317-227-5780",
    "hours": "0000-2359",
    "travelDays": "2",
    "lat": "39.708816",
    "long": "-86.304495"
  },
  {
    "facId": "ISP",
    "name": "Islip Tower",
    "level": "6",
    "type": "TOWER WITH RADAR",
    "address": "5 Airway Rd",
    "city": "Ronkonkoma",
    "state": "NY",
    "zip": "11779",
    "phone": "631-619-9040",
    "hours": "0600-2359",
    "travelDays": "4",
    "lat": "40.789383",
    "long": "-73.101524"
  },
  {
    "facId": "ITO",
    "name": "Hilo Tower",
    "level": "6",
    "type": "COMBINED TRACON TOWER",
    "address": "102 Ailolo St",
    "city": "Hilo",
    "state": "HI",
    "zip": "96720",
    "phone": "808-935-4658",
    "hours": "0600-2200",
    "travelDays": "X",
    "lat": "19.71619",
    "long": "-155.047476"
  },
  {
    "facId": "JAN",
    "name": "Jackson Tower",
    "level": "6",
    "type": "COMBINED TRACON TOWER",
    "address": "100 International Dr",
    "city": "Jackson",
    "state": "MS",
    "zip": "39298",
    "phone": "601-965-5793",
    "hours": "0600-2300",
    "travelDays": "2",
    "lat": "32.310078",
    "long": "-90.075512"
  },
  {
    "facId": "JAX",
    "name": "Jacksonville Tower",
    "level": "9",
    "type": "COMBINED TRACON TOWER",
    "address": "14400 Whirlwind Ave",
    "city": "Jacksonville",
    "state": "FL",
    "zip": "32218",
    "phone": "904-741-0700",
    "hours": "0000-2359",
    "travelDays": "3",
    "lat": "30.49303",
    "long": "-81.68277"
  },
  {
    "facId": "JCF",
    "name": "Joshua Control Facility",
    "level": "8",
    "type": "COMBINED CONTROL FAC.",
    "address": "100 E Sparks Dr",
    "city": "Edwards AFB",
    "state": "CA",
    "zip": "93524",
    "phone": "661-575-2100",
    "hours": "0000-2359",
    "travelDays": "3",
    "lat": "34.919201",
    "long": "-117.902154"
  },
  {
    "facId": "JFK",
    "name": "Kennedy Tower",
    "level": "11",
    "type": "TOWER WITH RADAR",
    "address": "JFK International Airport",
    "city": "Jamaica",
    "state": "NY",
    "zip": "11430",
    "phone": "718-656-0335",
    "hours": "0000-2359",
    "travelDays": "4",
    "lat": "40.64267",
    "long": "-73.78132"
  },
  {
    "facId": "JNU",
    "name": "Juneau Tower",
    "level": "5",
    "type": "TOWER WITH RADAR",
    "address": "1873 Shell Simmons Dr",
    "city": "Juneau",
    "state": "AK",
    "zip": "99801",
    "phone": "907-586-7411",
    "hours": "0600-2300 APR-SEP; 0700-2000 OCT-MAR",
    "travelDays": "8",
    "lat": "58.36273",
    "long": "-134.58452"
  },
  {
    "facId": "L30",
    "name": "Las Vegas TRACON",
    "level": "11",
    "type": "TRACON",
    "address": "699 Wright Brothers Ln",
    "city": "Las Vegas",
    "state": "NV",
    "zip": "89119",
    "phone": "702-262-5900",
    "hours": "0000-2359",
    "travelDays": "3",
    "lat": "36.082711",
    "long": "-115.146932"
  },
  {
    "facId": "LAF",
    "name": "Lafayette Tower",
    "level": "5",
    "type": "TOWER WITH RADAR",
    "address": "1560 Aviation Dr",
    "city": "West Lafayette",
    "state": "IN",
    "zip": "47906",
    "phone": "765-743-2611",
    "hours": "0700-2100",
    "travelDays": "2",
    "lat": "40.414752",
    "long": "-86.933346"
  },
  {
    "facId": "LAN",
    "name": "Lansing Tower",
    "level": "4",
    "type": "COMBINED TRACON TOWER",
    "address": "4100 Capital City Blvd",
    "city": "Lansing",
    "state": "MI",
    "zip": "48906",
    "phone": "517-321-1355",
    "hours": "0000-2359",
    "travelDays": "3",
    "lat": "42.77323",
    "long": "-84.588875"
  },
  {
    "facId": "LAS",
    "name": "Las Vegas Tower",
    "level": "11",
    "type": "TOWER WITH RADAR",
    "address": "699 Wright Brothers Ln",
    "city": "Las Vegas",
    "state": "NV",
    "zip": "89119",
    "phone": "702-262-5910",
    "hours": "0000-2359",
    "travelDays": "3",
    "lat": "36.08277",
    "long": "-115.147243"
  },
  {
    "facId": "LAX",
    "name": "Los Angeles Tower",
    "level": "12",
    "type": "TOWER WITH RADAR",
    "address": "245 World Way N",
    "city": "Los Angeles",
    "state": "CA",
    "zip": "90045",
    "phone": "310-342-4900",
    "hours": "0000-2359",
    "travelDays": "3",
    "lat": "33.9449",
    "long": "-118.40668"
  },
  {
    "facId": "LBB",
    "name": "Lubbock Tower",
    "level": "7",
    "type": "COMBINED TRACON TOWER",
    "address": "7001 N Martin Luther King Jr Blvd",
    "city": "Lubbock",
    "state": "TX",
    "zip": "79403",
    "phone": "806-766-6503",
    "hours": "0000-2359",
    "travelDays": "1",
    "lat": "33.530704",
    "long": "-101.820145"
  },
  {
    "facId": "LCH",
    "name": "Lake Charles Tower",
    "level": "5",
    "type": "COMBINED TRACON TOWER",
    "address": "500 Airport Blvd",
    "city": "Lake Charles",
    "state": "LA",
    "zip": "70607",
    "phone": "337-477-2016",
    "hours": "0600-2200",
    "travelDays": "2",
    "lat": "30.128315",
    "long": "-93.21417"
  },
  {
    "facId": "LEX",
    "name": "Lexington Tower",
    "level": "7",
    "type": "COMBINED TRACON TOWER",
    "address": "4051 Terminal Dr",
    "city": "Lexington",
    "state": "KY",
    "zip": "40510",
    "phone": "859-514-7901",
    "hours": "0000-2359",
    "travelDays": "2",
    "lat": "38.039906",
    "long": "-84.5974"
  },
  {
    "facId": "LFT",
    "name": "Lafayette Tower",
    "level": "5",
    "type": "COMBINED TRACON TOWER",
    "address": "220 Tower Dr",
    "city": "Lafayette",
    "state": "LA",
    "zip": "70508",
    "phone": "337-234-4935",
    "hours": "0530-2230",
    "travelDays": "2",
    "lat": "30.20401",
    "long": "-91.99567"
  },
  {
    "facId": "LGA",
    "name": "La Guardia Tower",
    "level": "11",
    "type": "TOWER WITH RADAR",
    "address": "LaGuardia Airport",
    "city": "Flushing",
    "state": "NY",
    "zip": "11371",
    "phone": "347-846-1710",
    "hours": "0000-2359",
    "travelDays": "4",
    "lat": "40.773497",
    "long": "-73.873687"
  },
  {
    "facId": "LGB",
    "name": "Long Beach Tower",
    "level": "8",
    "type": "TOWER WITH RADAR",
    "address": "3601 E Spring St",
    "city": "Long Beach",
    "state": "CA",
    "zip": "90806",
    "phone": "562-424-7128",
    "hours": "0615-2345",
    "travelDays": "3",
    "lat": "33.8117",
    "long": "-118.150211"
  },
  {
    "facId": "LIT",
    "name": "Little Rock Tower",
    "level": "7",
    "type": "COMBINED TRACON TOWER",
    "address": "2601 David Grundfest Dr",
    "city": "Little Rock",
    "state": "AR",
    "zip": "72206",
    "phone": "501-379-2900",
    "hours": "0000-2359",
    "travelDays": "1",
    "lat": "34.724835",
    "long": "-92.223741"
  },
  {
    "facId": "LNK",
    "name": "Lincoln Tower",
    "level": "5",
    "type": "TOWER WITH RADAR",
    "address": "2600 W Adams St",
    "city": "Lincoln",
    "state": "NE",
    "zip": "68524",
    "phone": "402-474-3011",
    "hours": "0530-0000",
    "travelDays": "1",
    "lat": "40.842873",
    "long": "-96.74308"
  },
  {
    "facId": "LOU",
    "name": "Bowman Tower",
    "level": "5",
    "type": "TOWER WITH RADAR",
    "address": "2710 Moran Ave",
    "city": "Louisville",
    "state": "KY",
    "zip": "40205",
    "phone": "502-479-3173",
    "hours": "0700-2200",
    "travelDays": "2",
    "lat": "38.227192",
    "long": "-85.66027"
  },
  {
    "facId": "LVK",
    "name": "Livermore Tower",
    "level": "6",
    "type": "TOWER WITH RADAR",
    "address": "590 Airway Blvd",
    "city": "Livermore",
    "state": "CA",
    "zip": "94551",
    "phone": "925-443-0666",
    "hours": "0700-2100",
    "travelDays": "4",
    "lat": "37.69612",
    "long": "-121.81635"
  },
  {
    "facId": "M03",
    "name": "Memphis TRACON",
    "level": "9",
    "type": "TRACON",
    "address": "2515 Winchester Rd",
    "city": "Memphis",
    "state": "TN",
    "zip": "38116",
    "phone": "901-842-8400",
    "hours": "0000-2359",
    "travelDays": "1",
    "lat": "35.049915",
    "long": "-89.981572"
  },
  {
    "facId": "M98",
    "name": "Minneapolis TRACON",
    "level": "10",
    "type": "TRACON",
    "address": "6311 34th Ave S",
    "city": "Minneapolis",
    "state": "MN",
    "zip": "55450",
    "phone": "612-713-4000",
    "hours": "0000-2359",
    "travelDays": "2",
    "lat": "44.88914",
    "long": "-93.223045"
  },
  {
    "facId": "MAF",
    "name": "Midland Tower",
    "level": "7",
    "type": "COMBINED TRACON TOWER",
    "address": "2500 N Pliska Dr",
    "city": "Midland",
    "state": "TX",
    "zip": "79711",
    "phone": "432-488-2000",
    "hours": "0600-0000",
    "travelDays": "1",
    "lat": "31.940176",
    "long": "-102.2092"
  },
  {
    "facId": "MBS",
    "name": "Saginaw Tower",
    "level": "4",
    "type": "COMBINED TRACON TOWER",
    "address": "8570 W Freeland Rd",
    "city": "Freeland",
    "state": "MI",
    "zip": "48623",
    "phone": "989-695-9143",
    "hours": "0600-2300",
    "travelDays": "3",
    "lat": "43.52107",
    "long": "-84.08192"
  },
  {
    "facId": "MCI",
    "name": "Kansas City Tower",
    "level": "8",
    "type": "COMBINED TRACON TOWER",
    "address": "#4 International Sq",
    "city": "Kansas City",
    "state": "MO",
    "zip": "64153",
    "phone": "816-329-2700",
    "hours": "0000-2359",
    "travelDays": "1",
    "lat": "39.298327",
    "long": "-94.715745"
  },
  {
    "facId": "MCO",
    "name": "Orlando Tower",
    "level": "9",
    "type": "TOWER WITH RADAR",
    "address": "9685 Jeff Fuqua Blvd N",
    "city": "Orlando",
    "state": "FL",
    "zip": "32827",
    "phone": "407-852-7500",
    "hours": "0000-2359",
    "travelDays": "3",
    "lat": "28.427191",
    "long": "-81.307528"
  },
  {
    "facId": "MDT",
    "name": "Harrisburg Tower",
    "level": "7",
    "type": "COMBINED TRACON TOWER",
    "address": "1 Terminal Dr",
    "city": "Middletown",
    "state": "PA",
    "zip": "17057",
    "phone": "717-948-9180",
    "hours": "0000-2359",
    "travelDays": "3",
    "lat": "40.197424",
    "long": "-76.763474"
  },
  {
    "facId": "MDW",
    "name": "Midway Tower",
    "level": "8",
    "type": "TOWER WITH RADAR",
    "address": "6200 S Laramie Ave",
    "city": "Chicago",
    "state": "IL",
    "zip": "60638",
    "phone": "773-884-3670",
    "hours": "0000-2359",
    "travelDays": "2",
    "lat": "41.78027",
    "long": "-87.752417"
  },
  {
    "facId": "MEM",
    "name": "Memphis Tower",
    "level": "8",
    "type": "TOWER WITH RADAR",
    "address": "2515 Winchester Rd",
    "city": "Memphis",
    "state": "TN",
    "zip": "38116",
    "phone": "901-842-8400",
    "hours": "0000-2359",
    "travelDays": "1",
    "lat": "35.049616",
    "long": "-89.981666"
  },
  {
    "facId": "MFD",
    "name": "Mansfield Tower",
    "level": "5",
    "type": "COMBINED TRACON TOWER",
    "address": "2101 Harrington Memorial Rd",
    "city": "Mansfield",
    "state": "OH",
    "zip": "44903",
    "phone": "419-522-7272",
    "hours": "0600-2300",
    "travelDays": "3",
    "lat": "40.81279",
    "long": "-82.51301"
  },
  {
    "facId": "MGM",
    "name": "Montgomery Tower",
    "level": "7",
    "type": "COMBINED TRACON TOWER",
    "address": "4701-B Tower Rd",
    "city": "Hope Hull",
    "state": "AL",
    "zip": "36043",
    "phone": "334-284-0384",
    "hours": "0600-2300",
    "travelDays": "2",
    "lat": "32.29756",
    "long": "-86.41373"
  },
  {
    "facId": "MHT",
    "name": "Manchester Tower",
    "level": "4",
    "type": "TOWER WITH RADAR",
    "address": "8 Ammon Dr",
    "city": "Manchester",
    "state": "NH",
    "zip": "3103",
    "phone": "603-621-1700",
    "hours": "0000-2359",
    "travelDays": "4",
    "lat": "42.93298",
    "long": "-71.440186"
  },
  {
    "facId": "MIA",
    "name": "Miami Tower",
    "level": "12",
    "type": "COMBINED TRACON TOWER",
    "address": "6400 NW 22nd St",
    "city": "Miami",
    "state": "FL",
    "zip": "33122",
    "phone": "305-869-5400",
    "hours": "0000-2359",
    "travelDays": "4",
    "lat": "25.793616",
    "long": "-80.299723"
  },
  {
    "facId": "MIC",
    "name": "Crystal Tower",
    "level": "4",
    "type": "TOWER WITH RADAR",
    "address": "5800 Crystal Airport Rd",
    "city": "Crystal",
    "state": "MN",
    "zip": "55429",
    "phone": "763-537-9161",
    "hours": "0700-2200 MAY-SEP, 0700-2100 OCT-APR",
    "travelDays": "3",
    "lat": "45.0585",
    "long": "-93.35586"
  },
  {
    "facId": "MKC",
    "name": "Downtown Tower",
    "level": "5",
    "type": "TOWER WITH RADAR",
    "address": "653 NW Lou Holland Dr",
    "city": "Kansas City",
    "state": "MO",
    "zip": "64116",
    "phone": "816-329-2880",
    "hours": "0000-2359",
    "travelDays": "1",
    "lat": "39.13534",
    "long": "-94.58896"
  },
  {
    "facId": "MKE",
    "name": "Milwaukee Tower",
    "level": "8",
    "type": "COMBINED TRACON TOWER",
    "address": "5330 S Howell Ave",
    "city": "Milwaukee",
    "state": "WI",
    "zip": "53207",
    "phone": "414-489-2150",
    "hours": "0000-2359",
    "travelDays": "2",
    "lat": "42.947833",
    "long": "-87.90643"
  },
  {
    "facId": "MKG",
    "name": "Muskegon Tower",
    "level": "4",
    "type": "COMBINED TRACON TOWER",
    "address": "113 Sinclair Dr",
    "city": "Muskegon",
    "state": "MI",
    "zip": "49441",
    "phone": "231-798-1222",
    "hours": "0600-2300",
    "travelDays": "2",
    "lat": "43.164413",
    "long": "-86.23773"
  },
  {
    "facId": "MLI",
    "name": "Quad City Tower",
    "level": "5",
    "type": "COMBINED TRACON TOWER",
    "address": "6421 74th Ave",
    "city": "Milan",
    "state": "IL",
    "zip": "61264",
    "phone": "309-799-5195",
    "hours": "0530-2230",
    "travelDays": "2",
    "lat": "41.441124",
    "long": "-90.508514"
  },
  {
    "facId": "MLU",
    "name": "Monroe Tower",
    "level": "5",
    "type": "COMBINED TRACON TOWER",
    "address": "5403 Operations Rd",
    "city": "Monroe",
    "state": "LA",
    "zip": "71203",
    "phone": "318-327-5600",
    "hours": "0600-2200",
    "travelDays": "1",
    "lat": "32.511753",
    "long": "-92.04391"
  },
  {
    "facId": "MMU",
    "name": "Morristown Tower",
    "level": "5",
    "type": "TOWER WITH RADAR",
    "address": "4 Airport Rd",
    "city": "Morristown",
    "state": "NJ",
    "zip": "7960",
    "phone": "973-267-0331",
    "hours": "0645-2230",
    "travelDays": "4",
    "lat": "40.796394",
    "long": "-74.42827"
  },
  {
    "facId": "MOB",
    "name": "Mobile Tower",
    "level": "8",
    "type": "COMBINED TRACON TOWER",
    "address": "101 Flave Pierce Rd",
    "city": "Mobile",
    "state": "AL",
    "zip": "36608",
    "phone": "251-662-6200",
    "hours": "0600-2300",
    "travelDays": "2",
    "lat": "30.688995",
    "long": "-88.25007"
  },
  {
    "facId": "MRI",
    "name": "Merrill Tower",
    "level": "6",
    "type": "TOWER WITH RADAR",
    "address": "1950 E 5th Ave",
    "city": "Anchorage",
    "state": "AK",
    "zip": "99501",
    "phone": "907-271-2698",
    "hours": "0700-0000 May-Aug 0700-2200 Sep-Apr",
    "travelDays": "9",
    "lat": "61.217243",
    "long": "-149.843879"
  },
  {
    "facId": "MRY",
    "name": "Monterey Tower",
    "level": "5",
    "type": "TOWER WITH RADAR",
    "address": "2475 Henderson Way",
    "city": "Monterey",
    "state": "CA",
    "zip": "93940",
    "phone": "831-375-1211",
    "hours": "0600-2100",
    "travelDays": "4",
    "lat": "36.587296",
    "long": "-121.85321"
  },
  {
    "facId": "MSN",
    "name": "Madison Tower",
    "level": "7",
    "type": "COMBINED TRACON TOWER",
    "address": "4301 International La",
    "city": "Madison",
    "state": "WI",
    "zip": "53704",
    "phone": "608-244-5691",
    "hours": "0600-2300",
    "travelDays": "2",
    "lat": "43.134155",
    "long": "-89.349205"
  },
  {
    "facId": "MSP",
    "name": "Minneapolis Tower",
    "level": "11",
    "type": "TOWER WITH RADAR",
    "address": "6311 34th Ave S",
    "city": "Minneapolis",
    "state": "MN",
    "zip": "55450",
    "phone": "612-713-4000",
    "hours": "0000-2359",
    "travelDays": "2",
    "lat": "44.88914",
    "long": "-93.223045"
  },
  {
    "facId": "MSY",
    "name": "New Orleans Tower",
    "level": "9",
    "type": "COMBINED TRACON TOWER",
    "address": "1 Terminal Dr",
    "city": "Kenner",
    "state": "LA",
    "zip": "70062",
    "phone": "504-471-4300",
    "hours": "0000-2359",
    "travelDays": "2",
    "lat": "29.984001",
    "long": "-90.259032"
  },
  {
    "facId": "MWH",
    "name": "Grant County Tower",
    "level": "6",
    "type": "COMBINED TRACON TOWER",
    "address": "7820 Andrews St NE",
    "city": "Moses Lake",
    "state": "WA",
    "zip": "98837",
    "phone": "509-762-1367",
    "hours": "0600-2200",
    "travelDays": "5",
    "lat": "47.18831",
    "long": "-119.32186"
  },
  {
    "facId": "MYF",
    "name": "Montgomery Tower",
    "level": "7",
    "type": "TOWER WITH RADAR",
    "address": "4298 Ponderosa Ave",
    "city": "San Diego",
    "state": "CA",
    "zip": "92123",
    "phone": "858-277-5601",
    "hours": "0600-2100",
    "travelDays": "3",
    "lat": "32.819027",
    "long": "-117.1325"
  },
  {
    "facId": "MYR",
    "name": "Myrtle Beach Tower",
    "level": "8",
    "type": "COMBINED TRACON TOWER",
    "address": "3242 Tower St",
    "city": "Myrtle Beach",
    "state": "SC",
    "zip": "29577",
    "phone": "843-238-3008",
    "hours": "0600-2300",
    "travelDays": "3",
    "lat": "33.684387",
    "long": "-78.94085"
  },
  {
    "facId": "N90",
    "name": "New York TRACON",
    "level": "12",
    "type": "COMBINED TRACON",
    "address": "1515 Stewart Ave",
    "city": "Westbury",
    "state": "NY",
    "zip": "11590",
    "phone": "516-683-2900",
    "hours": "0000-2359",
    "travelDays": "4",
    "lat": "40.73761",
    "long": "-73.57216"
  },
  {
    "facId": "NCT",
    "name": "Northern California TRACON",
    "level": "12",
    "type": "TRACON",
    "address": "11375 Douglas Rd",
    "city": "Mather",
    "state": "CA",
    "zip": "95655",
    "phone": "916-366-4001",
    "hours": "0000-2359",
    "travelDays": "4",
    "lat": "38.55959",
    "long": "-121.26446"
  },
  {
    "facId": "NEW",
    "name": "Lakefront Tower",
    "level": "5",
    "type": "TOWER WITH RADAR",
    "address": "8500 Lloyd Stearman Dr",
    "city": "New Orleans",
    "state": "LA",
    "zip": "70126",
    "phone": "504-240-3335",
    "hours": "0800-1800",
    "travelDays": "2",
    "lat": "30.042159",
    "long": "-90.025771"
  },
  {
    "facId": "OAK",
    "name": "Oakland Tower",
    "level": "8",
    "type": "TOWER WITH RADAR",
    "address": "1 Airport Dr",
    "city": "Oakland",
    "state": "CA",
    "zip": "94621",
    "phone": "510-214-1700",
    "hours": "0000-2359",
    "travelDays": "4",
    "lat": "37.71958",
    "long": "-122.22193"
  },
  {
    "facId": "OGG",
    "name": "Maui Tower",
    "level": "7",
    "type": "TOWER WITH RADAR",
    "address": "62 Kuhea St",
    "city": "Kahului",
    "state": "HI",
    "zip": "96732",
    "phone": "808-877-0725",
    "hours": "0600-2300 DST, 0600-0000 STD",
    "travelDays": "X",
    "lat": "20.897265",
    "long": "-156.426289"
  },
  {
    "facId": "OKC",
    "name": "Oklahoma City Tower",
    "level": "8",
    "type": "COMBINED TRACON TOWER",
    "address": "4500 SW 67th St",
    "city": "Oklahoma City",
    "state": "OK",
    "zip": "73159",
    "phone": "405-686-4700",
    "hours": "0000-2359",
    "travelDays": "0",
    "lat": "35.39867",
    "long": "-97.599785"
  },
  {
    "facId": "OMA",
    "name": "Eppley Tower",
    "level": "6",
    "type": "TOWER WITH RADAR",
    "address": "4501 Abbott Dr",
    "city": "Omaha",
    "state": "NE",
    "zip": "68110",
    "phone": "402-271-7500",
    "hours": "0000-2359",
    "travelDays": "1",
    "lat": "41.293163",
    "long": "-95.90153"
  },
  {
    "facId": "ONT",
    "name": "Ontario Tower",
    "level": "5",
    "type": "TOWER WITH RADAR",
    "address": "1250 Tower Dr",
    "city": "Ontario",
    "state": "CA",
    "zip": "91761",
    "phone": "909-605-0057",
    "hours": "0000-2359",
    "travelDays": "3",
    "lat": "34.04982",
    "long": "-117.59856"
  },
  {
    "facId": "ORD",
    "name": "Chicago O'Hare Tower",
    "level": "12",
    "type": "TOWER WITH RADAR",
    "address": "Chicago O'Hare International Airport",
    "city": "Chicago",
    "state": "IL",
    "zip": "60666",
    "phone": "773-601-7601",
    "hours": "0000-2359",
    "travelDays": "2",
    "lat": "41.97607",
    "long": "-87.90328"
  },
  {
    "facId": "ORF",
    "name": "Norfolk Tower",
    "level": "8",
    "type": "COMBINED TRACON TOWER",
    "address": "1245 Miller Store Rd",
    "city": "Virginia Beach",
    "state": "VA",
    "zip": "23455",
    "phone": "757-460-5142",
    "hours": "0000-2359",
    "travelDays": "4",
    "lat": "36.891045",
    "long": "-76.194336"
  },
  {
    "facId": "ORL",
    "name": "Orlando Executive Tower",
    "level": "6",
    "type": "TOWER WITH RADAR",
    "address": "4599 ORL Tower Rd",
    "city": "Orlando",
    "state": "FL",
    "zip": "32807",
    "phone": "407-648-6290",
    "hours": "0700-2200",
    "travelDays": "3",
    "lat": "28.54383",
    "long": "-81.32874"
  },
  {
    "facId": "P31",
    "name": "Pensacola TRACON",
    "level": "9",
    "type": "TRACON",
    "address": "4230 Airfield Rd",
    "city": "Pensacola",
    "state": "FL",
    "zip": "32504",
    "phone": "850-266-6900",
    "hours": "0000-2359",
    "travelDays": "2",
    "lat": "30.4576",
    "long": "-87.18308"
  },
  {
    "facId": "P50",
    "name": "Phoenix TRACON",
    "level": "11",
    "type": "TRACON",
    "address": "3500 E Sky Harbor Blvd",
    "city": "Phoenix",
    "state": "AZ",
    "zip": "85034",
    "phone": "602-306-2500",
    "hours": "0000-2359",
    "travelDays": "3",
    "lat": "33.434982",
    "long": "-112.00734"
  },
  {
    "facId": "P80",
    "name": "Portland TRACON",
    "level": "9",
    "type": "TRACON",
    "address": "7108 NE Airport Way",
    "city": "Portland",
    "state": "OR",
    "zip": "97218",
    "phone": "503-493-7500",
    "hours": "0000-2359",
    "travelDays": "5",
    "lat": "45.587613",
    "long": "-122.588691"
  },
  {
    "facId": "PAE",
    "name": "Paine Tower",
    "level": "6",
    "type": "TOWER WITH RADAR",
    "address": "3310 100th St SW",
    "city": "Everett",
    "state": "WA",
    "zip": "98204",
    "phone": "425-923-1400",
    "hours": "0700-2100",
    "travelDays": "5",
    "lat": "47.909023",
    "long": "-122.279078"
  },
  {
    "facId": "PAO",
    "name": "Palo Alto Tower",
    "level": "6",
    "type": "TOWER WITH RADAR",
    "address": "1909 Embarcadero Rd",
    "city": "Palo Alto",
    "state": "CA",
    "zip": "94303",
    "phone": "650-493-0641",
    "hours": "0700-2100",
    "travelDays": "4",
    "lat": "37.453716",
    "long": "-122.11319"
  },
  {
    "facId": "PBI",
    "name": "Palm Beach Tower",
    "level": "9",
    "type": "COMBINED TRACON TOWER",
    "address": "3550 Belvedere Road",
    "city": "West Palm Beach",
    "state": "FL",
    "zip": "33406",
    "phone": "561-683-1867",
    "hours": "0000-2359",
    "travelDays": "4",
    "lat": "26.691494",
    "long": "-80.09388"
  },
  {
    "facId": "PCT",
    "name": "Potomac TRACON",
    "level": "12",
    "type": "TRACON",
    "address": "3699 Macintosh Dr",
    "city": "Warrenton",
    "state": "VA",
    "zip": "20187",
    "phone": "540-349-7503",
    "hours": "0000-2359",
    "travelDays": "3",
    "lat": "38.74924",
    "long": "-77.669464"
  },
  {
    "facId": "PDK",
    "name": "DeKalb - Peachtree Tower",
    "level": "7",
    "type": "TOWER WITH RADAR",
    "address": "2001 Airport Rd",
    "city": "Chamblee",
    "state": "GA",
    "zip": "30341",
    "phone": "678-495-5230",
    "hours": "0630-2300 MON-FRI 0700-2300 SAT-SUN",
    "travelDays": "2",
    "lat": "33.876522",
    "long": "-84.30529"
  },
  {
    "facId": "PDX",
    "name": "Portland Tower",
    "level": "8",
    "type": "TOWER WITH RADAR",
    "address": "7108 NE Airport Way",
    "city": "Portland",
    "state": "OR",
    "zip": "97218",
    "phone": "503-493-7500",
    "hours": "0000-2359",
    "travelDays": "5",
    "lat": "45.587687",
    "long": "-122.589092"
  },
  {
    "facId": "PHF",
    "name": "Patrick Henry Tower",
    "level": "5",
    "type": "TOWER WITH RADAR",
    "address": "2402 G Ave",
    "city": "Newport News",
    "state": "VA",
    "zip": "23602",
    "phone": "757-875-5080",
    "hours": "0600-2300",
    "travelDays": "3",
    "lat": "37.13032",
    "long": "-76.506165"
  },
  {
    "facId": "PHL",
    "name": "Philadelphia Tower",
    "level": "11",
    "type": "COMBINED TRACON TOWER",
    "address": "15 Hog Island Rd",
    "city": "Philadelphia",
    "state": "PA",
    "zip": "19153",
    "phone": "215-492-4100",
    "hours": "0000-2359",
    "travelDays": "4",
    "lat": "39.865305",
    "long": "-75.232982"
  },
  {
    "facId": "PHX",
    "name": "Phoenix Tower",
    "level": "10",
    "type": "TOWER WITH RADAR",
    "address": "3500 E Sky Harbor Blvd",
    "city": "Phoenix",
    "state": "AZ",
    "zip": "85034",
    "phone": "602-306-2500",
    "hours": "0000-2359",
    "travelDays": "3",
    "lat": "33.434982",
    "long": "-112.00734"
  },
  {
    "facId": "PIA",
    "name": "Peoria Tower",
    "level": "5",
    "type": "COMBINED TRACON TOWER",
    "address": "6100 W Dirksen Pkwy",
    "city": "Peoria",
    "state": "IL",
    "zip": "61607",
    "phone": "309-697-0751",
    "hours": "0000-2359",
    "travelDays": "2",
    "lat": "40.665936",
    "long": "-89.690154"
  },
  {
    "facId": "PIE",
    "name": "St Petersburg Tower",
    "level": "7",
    "type": "TOWER WITH RADAR",
    "address": "14510 Airport Pkwy",
    "city": "Clearwater",
    "state": "FL",
    "zip": "33762",
    "phone": "727-539-6867",
    "hours": "0600-2300",
    "travelDays": "3",
    "lat": "27.902931",
    "long": "-82.69153"
  },
  {
    "facId": "PIT",
    "name": "Pittsburgh Tower",
    "level": "9",
    "type": "COMBINED TRACON TOWER",
    "address": "Tower Rd",
    "city": "Pittsburgh",
    "state": "PA",
    "zip": "15231",
    "phone": "412-269-9237",
    "hours": "0000-2359",
    "travelDays": "3",
    "lat": "40.494671",
    "long": "-80.237776"
  },
  {
    "facId": "PNE",
    "name": "Northeast Philadelphia Tower",
    "level": "5",
    "type": "TOWER WITH RADAR",
    "address": "3060 Red Lion Rd Gate #17",
    "city": "Philadelphia",
    "state": "PA",
    "zip": "19114",
    "phone": "215-673-7626",
    "hours": "0600-2300",
    "travelDays": "4",
    "lat": "40.081752",
    "long": "-75.006117"
  },
  {
    "facId": "PNS",
    "name": "Pensacola Tower",
    "level": "6",
    "type": "TOWER WITH RADAR",
    "address": "4230 Airfield Rd",
    "city": "Pensacola",
    "state": "FL",
    "zip": "32504",
    "phone": "850-266-6901",
    "hours": "0530-2300",
    "travelDays": "2",
    "lat": "30.4576",
    "long": "-87.18308"
  },
  {
    "facId": "POC",
    "name": "Brackett Tower",
    "level": "5",
    "type": "TOWER WITH RADAR",
    "address": "1600 Puddingstone Dr",
    "city": "La Verne",
    "state": "CA",
    "zip": "91750",
    "phone": "909-593-2539",
    "hours": "0700-2100",
    "travelDays": "3",
    "lat": "34.095123",
    "long": "-117.78588"
  },
  {
    "facId": "POU",
    "name": "Poughkeepsie Tower",
    "level": "4",
    "type": "TOWER WITH RADAR",
    "address": "265 New Hackensack Rd",
    "city": "Wappingers Falls",
    "state": "NY",
    "zip": "12590",
    "phone": "845-462-3434",
    "hours": "0700-2200 15 May-14 Sept, 0700-2100 15 Sept-14 May",
    "travelDays": "4",
    "lat": "41.623714",
    "long": "-73.884056"
  },
  {
    "facId": "PRC",
    "name": "Prescott Tower",
    "level": "7",
    "type": "TOWER WITH RADAR",
    "address": "6500 Wilkinson Dr",
    "city": "Prescott",
    "state": "AZ",
    "zip": "86301",
    "phone": "928-445-2160",
    "hours": "0600-2200",
    "travelDays": "3",
    "lat": "34.648964",
    "long": "-112.41949"
  },
  {
    "facId": "PSC",
    "name": "Pasco Tower",
    "level": "6",
    "type": "COMBINED TRACON TOWER",
    "address": "3601 N 20th Ave",
    "city": "Pasco",
    "state": "WA",
    "zip": "99301",
    "phone": "509-542-4200",
    "hours": "0600-2200",
    "travelDays": "4",
    "lat": "46.25754",
    "long": "-119.11704"
  },
  {
    "facId": "PSP",
    "name": "Palm Springs Tower",
    "level": "5",
    "type": "TOWER WITH RADAR",
    "address": "280 N El Cielo Rd",
    "city": "Palm Springs",
    "state": "CA",
    "zip": "92262",
    "phone": "760-327-1546",
    "hours": "0600-2300",
    "travelDays": "3",
    "lat": "33.82702",
    "long": "-116.51062"
  },
  {
    "facId": "PTK",
    "name": "Pontiac Tower",
    "level": "6",
    "type": "TOWER WITH RADAR",
    "address": "6510 Highland Rd",
    "city": "Waterford",
    "state": "MI",
    "zip": "48327",
    "phone": "248-886-8500",
    "hours": "0600-0000",
    "travelDays": "3",
    "lat": "42.659576",
    "long": "-83.41714"
  },
  {
    "facId": "PUB",
    "name": "Pueblo Tower",
    "level": "8",
    "type": "TOWER WITH RADAR",
    "address": "31385 Bryan Cir",
    "city": "Pueblo",
    "state": "CO",
    "zip": "81001",
    "phone": "719-948-3374",
    "hours": "0600-2200",
    "travelDays": "2",
    "lat": "38.28369",
    "long": "-104.49449"
  },
  {
    "facId": "PVD",
    "name": "Providence Tower",
    "level": "7",
    "type": "COMBINED TRACON TOWER",
    "address": "464 Warwick Industrial Dr",
    "city": "Warwick",
    "state": "RI",
    "zip": "2886",
    "phone": "401-734-2800",
    "hours": "0545-0000",
    "travelDays": "4",
    "lat": "41.709988",
    "long": "-71.43516"
  },
  {
    "facId": "PWK",
    "name": "Chicago Executive Tower",
    "level": "5",
    "type": "TOWER WITH RADAR",
    "address": "1060 S Milwaukee Ave",
    "city": "Wheeling",
    "state": "IL",
    "zip": "60090",
    "phone": "847-229-6000",
    "hours": "0600-2200 MON-FRI & 0700-2200 SAT-SUN",
    "travelDays": "2",
    "lat": "42.116309",
    "long": "-87.898293"
  },
  {
    "facId": "PWM",
    "name": "Portland Tower",
    "level": "6",
    "type": "COMBINED TRACON TOWER",
    "address": "1003 Westbrook St",
    "city": "Portland",
    "state": "ME",
    "zip": "4102",
    "phone": "207-775-0602",
    "hours": "0545-0000",
    "travelDays": "4",
    "lat": "43.650684",
    "long": "-70.30972"
  },
  {
    "facId": "R90",
    "name": "Omaha TRACON",
    "level": "8",
    "type": "TRACON",
    "address": "100 TRACON Hill",
    "city": "Bellevue",
    "state": "NE",
    "zip": "68005",
    "phone": "402-682-4340",
    "hours": "0000-2359",
    "travelDays": "1",
    "lat": "41.134727",
    "long": "-95.91039"
  },
  {
    "facId": "RDG",
    "name": "Reading Tower",
    "level": "5",
    "type": "COMBINED TRACON TOWER",
    "address": "2405 B Bernville Rd",
    "city": "Reading",
    "state": "PA",
    "zip": "19605",
    "phone": "610-374-8039",
    "hours": "0600-0000",
    "travelDays": "3",
    "lat": "40.37505",
    "long": "-75.97236"
  },
  {
    "facId": "RDU",
    "name": "Raleigh-Durham Tower",
    "level": "9",
    "type": "COMBINED TRACON TOWER",
    "address": "1000 Sawyer Cir",
    "city": "Morrisville",
    "state": "NC",
    "zip": "27560",
    "phone": "919-380-3110",
    "hours": "0000-2359",
    "travelDays": "3",
    "lat": "35.880986",
    "long": "-78.78579"
  },
  {
    "facId": "RFD",
    "name": "Rockford Tower",
    "level": "6",
    "type": "COMBINED TRACON TOWER",
    "address": "5701 Falcon Rd",
    "city": "Rockford",
    "state": "IL",
    "zip": "61109",
    "phone": "815-484-5312",
    "hours": "0000-2359",
    "travelDays": "2",
    "lat": "42.198315",
    "long": "-89.08526"
  },
  {
    "facId": "RHV",
    "name": "Reid-Hillview Tower",
    "level": "7",
    "type": "TOWER WITH RADAR",
    "address": "2204 Waverly Ave",
    "city": "San Jose",
    "state": "CA",
    "zip": "95122",
    "phone": "408-272-5917",
    "hours": "0700-2200",
    "travelDays": "4",
    "lat": "37.33102",
    "long": "-121.82139"
  },
  {
    "facId": "RIC",
    "name": "Richmond Tower",
    "level": "6",
    "type": "TOWER WITH RADAR",
    "address": "5701 Gulfstream Rd",
    "city": "Richmond",
    "state": "VA",
    "zip": "23250",
    "phone": "804-226-6520",
    "hours": "0000-2359",
    "travelDays": "3",
    "lat": "37.513443",
    "long": "-77.3319"
  },
  {
    "facId": "RNO",
    "name": "Reno Tower",
    "level": "5",
    "type": "TOWER WITH RADAR",
    "address": "755 S Rock Blvd",
    "city": "Reno",
    "state": "NV",
    "zip": "89502",
    "phone": "775-324-8553",
    "hours": "0000-2359",
    "travelDays": "4",
    "lat": "39.499424",
    "long": "-119.762892"
  },
  {
    "facId": "ROA",
    "name": "Roanoke Tower",
    "level": "6",
    "type": "COMBINED TRACON TOWER",
    "address": "5354 Aviation Dr",
    "city": "Roanoke",
    "state": "VA",
    "zip": "24102",
    "phone": "540-265-2280",
    "hours": "0000-2359",
    "travelDays": "3",
    "lat": "37.326434",
    "long": "-79.971551"
  },
  {
    "facId": "ROC",
    "name": "Rochester Tower",
    "level": "6",
    "type": "COMBINED TRACON TOWER",
    "address": "1375 Scottsville Rd",
    "city": "Rochester",
    "state": "NY",
    "zip": "14624",
    "phone": "585-463-3800",
    "hours": "0000-2359",
    "travelDays": "3",
    "lat": "43.11352",
    "long": "-77.66834"
  },
  {
    "facId": "ROW",
    "name": "Roswell Tower",
    "level": "5",
    "type": "COMBINED TRACON TOWER",
    "address": "30 W Challenger",
    "city": "Roswell",
    "state": "NM",
    "zip": "88202",
    "phone": "505-347-2800",
    "hours": "0600-2100",
    "travelDays": "1",
    "lat": "33.29904",
    "long": "-104.531588"
  },
  {
    "facId": "RST",
    "name": "Rochester Tower",
    "level": "5",
    "type": "COMBINED TRACON TOWER",
    "address": "9 Helgerson Dr SW",
    "city": "Rochester",
    "state": "MN",
    "zip": "55902",
    "phone": "507-289-3198",
    "hours": "0500-2300",
    "travelDays": "2",
    "lat": "43.916443",
    "long": "-92.48792"
  },
  {
    "facId": "RSW",
    "name": "Fort Myers Tower",
    "level": "8",
    "type": "COMBINED TRACON TOWER",
    "address": "11900 Regional Ln SE",
    "city": "Ft Myers",
    "state": "FL",
    "zip": "33913",
    "phone": "239-768-5985",
    "hours": "0600-0000",
    "travelDays": "4",
    "lat": "26.537367",
    "long": "-81.759076"
  },
  {
    "facId": "RVS",
    "name": "Riverside Tower",
    "level": "7",
    "type": "TOWER WITH RADAR",
    "address": "8801 S Jack Bates Ave",
    "city": "Tulsa",
    "state": "OK",
    "zip": "74132",
    "phone": "918-299-6355",
    "hours": "0700 - 2200",
    "travelDays": "1",
    "lat": "36.035725",
    "long": "-95.99078"
  },
  {
    "facId": "S46",
    "name": "Seattle TRACON",
    "level": "10",
    "type": "TRACON",
    "address": "825 S 160th St",
    "city": "Burien",
    "state": "WA",
    "zip": "98148",
    "phone": "206-214-4600",
    "hours": "0000-2359",
    "travelDays": "5",
    "lat": "47.459644",
    "long": "-122.32355"
  },
  {
    "facId": "S56",
    "name": "Salt Lake City TRACON",
    "level": "10",
    "type": "TRACON",
    "address": "1201 N 4000 W St",
    "city": "Salt Lake City",
    "state": "UT",
    "zip": "84116",
    "phone": "801-325-9600",
    "hours": "0000-2359",
    "travelDays": "3",
    "lat": "40.79635",
    "long": "-111.985153"
  },
  {
    "facId": "SAN",
    "name": "San Diego Tower",
    "level": "8",
    "type": "TOWER WITH RADAR",
    "address": "3690 Pacific Hwy",
    "city": "San Diego",
    "state": "CA",
    "zip": "92101",
    "phone": "619-299-0677",
    "hours": "0000-2359",
    "travelDays": "3",
    "lat": "32.738533",
    "long": "-117.18094"
  },
  {
    "facId": "SAT",
    "name": "San Antonio Tower",
    "level": "9",
    "type": "COMBINED TRACON TOWER",
    "address": "9434 Airport Blvd",
    "city": "San Antonio",
    "state": "TX",
    "zip": "78216",
    "phone": "210-805-5507",
    "hours": "0000-2359",
    "travelDays": "1",
    "lat": "29.527007",
    "long": "-98.475902"
  },
  {
    "facId": "SAV",
    "name": "Savannah Tower",
    "level": "8",
    "type": "COMBINED TRACON TOWER",
    "address": "100 Melaver Dr",
    "city": "Savannah",
    "state": "GA",
    "zip": "31408",
    "phone": "912-964-3700",
    "hours": "0600-0000",
    "travelDays": "3",
    "lat": "32.140945",
    "long": "-81.20922"
  },
  {
    "facId": "SBA",
    "name": "Santa Barbara Tower",
    "level": "7",
    "type": "COMBINED TRACON TOWER",
    "address": "10 Burns Pl",
    "city": "Santa Barbara",
    "state": "CA",
    "zip": "93117",
    "phone": "805-681-0534",
    "hours": "0600-2300",
    "travelDays": "4",
    "lat": "34.431484",
    "long": "-119.84516"
  },
  {
    "facId": "SBN",
    "name": "South Bend Tower",
    "level": "7",
    "type": "COMBINED TRACON TOWER",
    "address": "4713 Lathrop St",
    "city": "South Bend",
    "state": "IN",
    "zip": "46628",
    "phone": "574-251-2600",
    "hours": "0530-0000 SUN-FRI, 0530-2345 SAT",
    "travelDays": "2",
    "lat": "41.708004",
    "long": "-86.312325"
  },
  {
    "facId": "SCK",
    "name": "Stockton Tower",
    "level": "5",
    "type": "TOWER WITH RADAR",
    "address": "7434 S Lindbergh St",
    "city": "Stockton",
    "state": "CA",
    "zip": "95206",
    "phone": "209-982-4744",
    "hours": "0700-2100",
    "travelDays": "4",
    "lat": "37.891167",
    "long": "-121.24249"
  },
  {
    "facId": "SCT",
    "name": "Southern California TRACON",
    "level": "12",
    "type": "COMBINED TRACON",
    "address": "9175 Kearny Villa Rd",
    "city": "San Diego",
    "state": "CA",
    "zip": "92126",
    "phone": "858-537-5800",
    "hours": "0000-2359",
    "travelDays": "3",
    "lat": "32.891037",
    "long": "-117.11808"
  },
  {
    "facId": "SDF",
    "name": "Standiford Tower",
    "level": "8",
    "type": "COMBINED TRACON TOWER",
    "address": "755 Old Grade Ln",
    "city": "Louisville",
    "state": "KY",
    "zip": "40213",
    "phone": "502-375-7415",
    "hours": "0000-2359",
    "travelDays": "2",
    "lat": "38.159832",
    "long": "-85.73058"
  },
  {
    "facId": "SDL",
    "name": "Scottsdale Tower",
    "level": "6",
    "type": "TOWER WITH RADAR",
    "address": "14960 N 78th Way",
    "city": "Scottsdale",
    "state": "AZ",
    "zip": "85260",
    "phone": "480-609-7585",
    "hours": "0600-2100",
    "travelDays": "2",
    "lat": "33.621223",
    "long": "-111.908485"
  },
  {
    "facId": "SEA",
    "name": "Seattle Tower",
    "level": "10",
    "type": "TOWER WITH RADAR",
    "address": "2440 S 166th St",
    "city": "Seattle",
    "state": "WA",
    "zip": "98158",
    "phone": "206-214-2500",
    "hours": "0000-2359",
    "travelDays": "5",
    "lat": "47.455824",
    "long": "-122.301363"
  },
  {
    "facId": "SEE",
    "name": "Gillespie Tower",
    "level": "7",
    "type": "TOWER WITH RADAR",
    "address": "2001 N Marshall Ave",
    "city": "El Cajon",
    "state": "CA",
    "zip": "92020",
    "phone": "619-448-1449",
    "hours": "0700-2100",
    "travelDays": "3",
    "lat": "32.82051",
    "long": "-116.97581"
  },
  {
    "facId": "SFB",
    "name": "Sanford Tower",
    "level": "9",
    "type": "TOWER WITH RADAR",
    "address": "747 Control Tower Ln",
    "city": "Sanford",
    "state": "FL",
    "zip": "32773",
    "phone": "407-330-9816",
    "hours": "0630-2300",
    "travelDays": "3",
    "lat": "28.7757",
    "long": "-81.238585"
  },
  {
    "facId": "SFO",
    "name": "San Francisco Tower",
    "level": "10",
    "type": "TOWER WITH RADAR",
    "address": "Terminal 2 Room 630",
    "city": "San Francisco",
    "state": "CA",
    "zip": "94128",
    "phone": "650-876-2883",
    "hours": "0000-2359",
    "travelDays": "4",
    "lat": "37.616031",
    "long": "-122.383962"
  },
  {
    "facId": "SGF",
    "name": "Springfield Tower",
    "level": "7",
    "type": "COMBINED TRACON TOWER",
    "address": "2365 N FAA Ave",
    "city": "Springfield",
    "state": "MO",
    "zip": "65802",
    "phone": "417-868-5600",
    "hours": "0000-2359",
    "travelDays": "1",
    "lat": "37.237095",
    "long": "-93.393654"
  },
  {
    "facId": "SHV",
    "name": "Shreveport Tower",
    "level": "6",
    "type": "COMBINED TRACON TOWER",
    "address": "3694 Range Rd",
    "city": "Barksdale AFB",
    "state": "LA",
    "zip": "71110",
    "phone": "318-747-8500",
    "hours": "0000-2359",
    "travelDays": "1",
    "lat": "32.45352",
    "long": "-93.83042"
  },
  {
    "facId": "SJC",
    "name": "San Jose Tower",
    "level": "7",
    "type": "TOWER WITH RADAR",
    "address": "275 Martin Ave",
    "city": "Santa Clara",
    "state": "CA",
    "zip": "95050",
    "phone": "408-982-0750",
    "hours": "0600-0000",
    "travelDays": "4",
    "lat": "37.360268",
    "long": "-121.93491"
  },
  {
    "facId": "SJU",
    "name": "San Juan Tower",
    "level": "7",
    "type": "TOWER WITH RADAR",
    "address": "Luis Munoz Marin Int'l Airport",
    "city": "San Juan",
    "state": "PR",
    "zip": "917",
    "phone": "787-253-4605",
    "hours": "0000-2359",
    "travelDays": "X",
    "lat": "18.43893",
    "long": "-66.00398"
  },
  {
    "facId": "SLC",
    "name": "Salt Lake City Tower",
    "level": "10",
    "type": "TOWER WITH RADAR",
    "address": "1201 North 4000 West",
    "city": "Salt Lake City",
    "state": "UT",
    "zip": "84116",
    "phone": "801-325-9600",
    "hours": "0000-2359",
    "travelDays": "3",
    "lat": "40.796358",
    "long": "-111.985137"
  },
  {
    "facId": "SMF",
    "name": "Sacramento Tower",
    "level": "6",
    "type": "TOWER WITH RADAR",
    "address": "5620 Alan Boyd Dr",
    "city": "Sacramento",
    "state": "CA",
    "zip": "95837",
    "phone": "916-929-5151",
    "hours": "0000-2359",
    "travelDays": "4",
    "lat": "38.690243",
    "long": "-121.5941"
  },
  {
    "facId": "SMO",
    "name": "Santa Monica Tower",
    "level": "5",
    "type": "TOWER WITH RADAR",
    "address": "3300 Donald Douglas Loop N",
    "city": "Santa Monica",
    "state": "CA",
    "zip": "90405",
    "phone": "310-398-1525",
    "hours": "0700-2100",
    "travelDays": "3",
    "lat": "34.018806",
    "long": "-118.45094"
  },
  {
    "facId": "SNA",
    "name": "John Wayne Tower",
    "level": "8",
    "type": "TOWER WITH RADAR",
    "address": "370 Paularino Ave",
    "city": "Costa Mesa",
    "state": "CA",
    "zip": "92626",
    "phone": "714-668-0141",
    "hours": "0615-2300",
    "travelDays": "3",
    "lat": "33.678818",
    "long": "-117.87248"
  },
  {
    "facId": "SPI",
    "name": "Springfield Tower",
    "level": "5",
    "type": "COMBINED TRACON TOWER",
    "address": "#1 Tower Dr",
    "city": "Springfield",
    "state": "IL",
    "zip": "62707",
    "phone": "217-535-1400",
    "hours": "0600-2200",
    "travelDays": "2",
    "lat": "39.844356",
    "long": "-89.685752"
  },
  {
    "facId": "SRQ",
    "name": "Sarasota Tower",
    "level": "6",
    "type": "TOWER WITH RADAR",
    "address": "1120 Clyde Jones Rd",
    "city": "Sarasota",
    "state": "FL",
    "zip": "34243",
    "phone": "941-355-3105",
    "hours": "0600-0000",
    "travelDays": "3",
    "lat": "27.403505",
    "long": "-82.55869"
  },
  {
    "facId": "STL",
    "name": "St Louis Tower",
    "level": "8",
    "type": "TOWER WITH RADAR",
    "address": "10789 Lambert International Blvd",
    "city": "Bridgeton",
    "state": "MO",
    "zip": "63044",
    "phone": "314-890-4703",
    "hours": "0000-2359",
    "travelDays": "1",
    "lat": "38.74481",
    "long": "-90.3733"
  },
  {
    "facId": "STP",
    "name": "St Paul Tower",
    "level": "4",
    "type": "TOWER WITH RADAR",
    "address": "514 Tower Rd",
    "city": "St Paul",
    "state": "MN",
    "zip": "55107",
    "phone": "651-312-8840",
    "hours": "0600-2200 MON-FRI, 0700-2200 SAT-SUN",
    "travelDays": "2",
    "lat": "44.933406",
    "long": "-93.064353"
  },
  {
    "facId": "STS",
    "name": "Sonoma Tower",
    "level": "5",
    "type": "TOWER WITH RADAR",
    "address": "2245 Airport Blvd",
    "city": "Santa Rosa",
    "state": "CA",
    "zip": "95403",
    "phone": "707-546-4294",
    "hours": "0700-2000",
    "travelDays": "4",
    "lat": "38.511005",
    "long": "-122.80364"
  },
  {
    "facId": "STT",
    "name": "St Thomas Tower",
    "level": "4",
    "type": "TOWER WITH RADAR",
    "address": "1 John Brewers Bay",
    "city": "Charlotte Amalie",
    "state": "VI",
    "zip": "802",
    "phone": "340-714-0793",
    "hours": "0700-2230, 0700-2130 DST",
    "travelDays": "X",
    "lat": "18.339138",
    "long": "-64.974791"
  },
  {
    "facId": "SUS",
    "name": "Spirit Tower",
    "level": "5",
    "type": "TOWER WITH RADAR",
    "address": "553 Beechcraft Ave",
    "city": "Chesterfield",
    "state": "MO",
    "zip": "63005",
    "phone": "314-890-7282",
    "hours": "0600-2300",
    "travelDays": "1",
    "lat": "38.66269",
    "long": "-90.65154"
  },
  {
    "facId": "SUX",
    "name": "Sioux Gateway Tower",
    "level": "5",
    "type": "COMBINED TRACON TOWER",
    "address": "6001 Mitchell St",
    "city": "Sioux City",
    "state": "IA",
    "zip": "51111",
    "phone": "712-277-3579",
    "hours": "0600-2130",
    "travelDays": "2",
    "lat": "42.402115",
    "long": "-96.37622"
  },
  {
    "facId": "SYR",
    "name": "Syracuse Tower",
    "level": "6",
    "type": "COMBINED TRACON TOWER",
    "address": "200 Constellation Way N",
    "city": "North Syracuse",
    "state": "NY",
    "zip": "13212",
    "phone": "315-426-4727",
    "hours": "0000-2359",
    "travelDays": "4",
    "lat": "43.114902",
    "long": "-76.11691"
  },
  {
    "facId": "T75",
    "name": "St Louis TRACON",
    "level": "9",
    "type": "TRACON",
    "address": "22 Research Park Ct",
    "city": "St Charles",
    "state": "MO",
    "zip": "63304",
    "phone": "314-890-1003",
    "hours": "0000-2359",
    "travelDays": "1",
    "lat": "38.706192",
    "long": "-90.679474"
  },
  {
    "facId": "TEB",
    "name": "Teterboro Tower",
    "level": "9",
    "type": "TOWER WITH RADAR",
    "address": "225 Fred Wehran Dr",
    "city": "Teterboro",
    "state": "NJ",
    "zip": "7608",
    "phone": "201-288-1889",
    "hours": "0000-2359",
    "travelDays": "4",
    "lat": "40.851818",
    "long": "-74.055214"
  },
  {
    "facId": "TLH",
    "name": "Tallahassee Tower",
    "level": "7",
    "type": "COMBINED TRACON TOWER",
    "address": "5700 Springhill Rd",
    "city": "Tallahassee",
    "state": "FL",
    "zip": "32305",
    "phone": "850-942-9642",
    "hours": "0600-2300",
    "travelDays": "3",
    "lat": "30.376928",
    "long": "-84.35469"
  },
  {
    "facId": "TMB",
    "name": "Tamiami Tower",
    "level": "7",
    "type": "TOWER WITH RADAR",
    "address": "14744 SW 128th St",
    "city": "Miami",
    "state": "FL",
    "zip": "33196",
    "phone": "305-256-7628",
    "hours": "0700-2300",
    "travelDays": "4",
    "lat": "25.648552",
    "long": "-80.43234"
  },
  {
    "facId": "TOA",
    "name": "Torrance Tower",
    "level": "5",
    "type": "TOWER WITH RADAR",
    "address": "25311 Aero Way",
    "city": "Torrance",
    "state": "CA",
    "zip": "90505",
    "phone": "310-539-1278",
    "hours": "0700-2000",
    "travelDays": "3",
    "lat": "33.800663",
    "long": "-118.341805"
  },
  {
    "facId": "TOL",
    "name": "Toledo Tower",
    "level": "6",
    "type": "COMBINED TRACON TOWER",
    "address": "11013 Airport Hwy",
    "city": "Swanton",
    "state": "OH",
    "zip": "43558",
    "phone": "419-865-5075",
    "hours": "0000-2359",
    "travelDays": "2",
    "lat": "41.59631",
    "long": "-83.80455"
  },
  {
    "facId": "TPA",
    "name": "Tampa Tower",
    "level": "10",
    "type": "COMBINED TRACON TOWER",
    "address": "4180 George J Bean Pkwy Suite 100",
    "city": "Tampa",
    "state": "FL",
    "zip": "33607",
    "phone": "813-371-7700",
    "hours": "0000-2359",
    "travelDays": "3",
    "lat": "27.981209",
    "long": "-82.533878"
  },
  {
    "facId": "TRI",
    "name": "Tri-Cities Tower",
    "level": "5",
    "type": "COMBINED TRACON TOWER",
    "address": "2701 Hwy 75",
    "city": "Blountville",
    "state": "TN",
    "zip": "37617",
    "phone": "423-325-6271",
    "hours": "0600-0000",
    "travelDays": "3",
    "lat": "36.476192",
    "long": "-82.412865"
  },
  {
    "facId": "TUL",
    "name": "Tulsa Tower",
    "level": "8",
    "type": "COMBINED TRACON TOWER",
    "address": "3232 N Memorial Dr",
    "city": "Tulsa",
    "state": "OK",
    "zip": "74115",
    "phone": "918-831-6700",
    "hours": "0000-2359",
    "travelDays": "1",
    "lat": "36.203568",
    "long": "-95.88698"
  },
  {
    "facId": "TUS",
    "name": "Tucson Tower",
    "level": "6",
    "type": "TOWER WITH RADAR",
    "address": "1865 E Aero Park Blvd",
    "city": "Tucson",
    "state": "AZ",
    "zip": "85756",
    "phone": "520-670-5810",
    "hours": "0000-2359",
    "travelDays": "2",
    "lat": "33.692918",
    "long": "-112.083384"
  },
  {
    "facId": "TVC",
    "name": "Traverse City Tower",
    "level": "5",
    "type": "TOWER WITH RADAR",
    "address": "1220 Airport Access Rd",
    "city": "Traverse City",
    "state": "MI",
    "zip": "49686",
    "phone": "231-947-0453",
    "hours": "0700-2200",
    "travelDays": "3",
    "lat": "44.74497",
    "long": "-85.58443"
  },
  {
    "facId": "TWF",
    "name": "Twin Falls Tower",
    "level": "5",
    "type": "NON-RADAR APP/TOWER",
    "address": "350 Airport Loop",
    "city": "Twin Falls",
    "state": "ID",
    "zip": "83301",
    "phone": "208-734-7160",
    "hours": "0600-2100",
    "travelDays": "3",
    "lat": "42.48363",
    "long": "-114.48479"
  },
  {
    "facId": "TYS",
    "name": "Knoxville Tower",
    "level": "7",
    "type": "COMBINED TRACON TOWER",
    "address": "2207 Airbase Rd",
    "city": "Louisville",
    "state": "TN",
    "zip": "37777",
    "phone": "865-970-3025",
    "hours": "0000-2359",
    "travelDays": "2",
    "lat": "35.817825",
    "long": "-84.002144"
  },
  {
    "facId": "U90",
    "name": "Tucson TRACON",
    "level": "8",
    "type": "TRACON",
    "address": "4445 Phoenix St",
    "city": "Tucson",
    "state": "AZ",
    "zip": "85708",
    "phone": "520-670-5087",
    "hours": "0000-2359",
    "travelDays": "2",
    "lat": "32.17037",
    "long": "-110.876194"
  },
  {
    "facId": "VGT",
    "name": "North Las Vegas Tower",
    "level": "7",
    "type": "TOWER WITH RADAR",
    "address": "3700 Thunderbird Field Rd",
    "city": "North Las Vegas",
    "state": "NV",
    "zip": "89032",
    "phone": "702-648-6588",
    "hours": "0600-2000 OCT-MAR, 0600-2100 APR-SEP",
    "travelDays": "3",
    "lat": "36.210178",
    "long": "-115.189266"
  },
  {
    "facId": "VNY",
    "name": "Van Nuys Tower",
    "level": "7",
    "type": "TOWER WITH RADAR",
    "address": "7550 Hayvenhurst Pl",
    "city": "Van Nuys",
    "state": "CA",
    "zip": "91406",
    "phone": "818-904-6166",
    "hours": "0600-2245",
    "travelDays": "3",
    "lat": "34.206043",
    "long": "-118.49242"
  },
  {
    "facId": "VRB",
    "name": "Vero Beach Tower",
    "level": "7",
    "type": "TOWER WITH RADAR",
    "address": "2930 Flight Safety Dr",
    "city": "Vero Beach",
    "state": "FL",
    "zip": "32960",
    "phone": "772-299-0129",
    "hours": "0700-2100",
    "travelDays": "3",
    "lat": "27.64965",
    "long": "-80.42106"
  },
  {
    "facId": "Y90",
    "name": "Yankee TRACON",
    "level": "8",
    "type": "TRACON",
    "address": "35 Perimeter Rd",
    "city": "Windsor Locks",
    "state": "CT",
    "zip": "6096",
    "phone": "860-386-3500",
    "hours": "0000-2359",
    "travelDays": "4",
    "lat": "41.945976",
    "long": "-72.68602"
  },
  {
    "facId": "YIP",
    "name": "Willow Run Tower",
    "level": "4",
    "type": "TOWER WITH RADAR",
    "address": "8800 Beck Rd",
    "city": "Belleville",
    "state": "MI",
    "zip": "48111",
    "phone": "734-480-9247",
    "hours": "0000-2359",
    "travelDays": "3",
    "lat": "42.23962",
    "long": "-83.50414"
  },
  {
    "facId": "YNG",
    "name": "Youngstown Tower",
    "level": "5",
    "type": "COMBINED TRACON TOWER",
    "address": "1453 Youngstown Kingsville Rd NE",
    "city": "Vienna",
    "state": "OH",
    "zip": "44473",
    "phone": "330-856-4806",
    "hours": "ATCT 0000-2359 TRACON 0600-2359",
    "travelDays": "3",
    "lat": "41.263508",
    "long": "-80.672987"
  },
  {
    "facId": "ZAB",
    "name": "Albuquerque Center",
    "level": "10",
    "type": "ARTCC",
    "address": "8000 Louisiana Blvd NE",
    "city": "Albuquerque",
    "state": "NM",
    "zip": "87109",
    "phone": "505-856-4500",
    "hours": "0000-2359",
    "travelDays": "2",
    "lat": "35.170483",
    "long": "-106.56876"
  },
  {
    "facId": "ZAN",
    "name": "Anchorage Center",
    "level": "10",
    "type": "ARTCC",
    "address": "700 N Boniface Pkwy",
    "city": "Anchorage",
    "state": "AK",
    "zip": "99506",
    "phone": "253-351-3500",
    "hours": "0000-2359",
    "travelDays": "9",
    "lat": "61.229836",
    "long": "-149.77838"
  },
  {
    "facId": "ZAU",
    "name": "Chicago Center",
    "level": "12",
    "type": "ARTCC",
    "address": "619 W New Indian Trail",
    "city": "Aurora",
    "state": "IL",
    "zip": "60506",
    "phone": "630-906-8220",
    "hours": "0000-2359",
    "travelDays": "2",
    "lat": "41.782682",
    "long": "-88.33107"
  },
  {
    "facId": "ZBW",
    "name": "Boston Center",
    "level": "11",
    "type": "ARTCC",
    "address": "35 Northeastern Blvd",
    "city": "Nashua",
    "state": "NH",
    "zip": "3062",
    "phone": "603-879-6633",
    "hours": "0000-2359",
    "travelDays": "4",
    "lat": "42.735436",
    "long": "-71.480787"
  },
  {
    "facId": "ZDC",
    "name": "Washington Center",
    "level": "12",
    "type": "ARTCC",
    "address": "825 E Market St",
    "city": "Leesburg",
    "state": "VA",
    "zip": "20176",
    "phone": "703-771-3401",
    "hours": "0000-2359",
    "travelDays": "3",
    "lat": "39.101679",
    "long": "-77.543087"
  },
  {
    "facId": "ZDV",
    "name": "Denver Center",
    "level": "10",
    "type": "ARTCC",
    "address": "2211 17th Ave",
    "city": "Longmont",
    "state": "CO",
    "zip": "80501",
    "phone": "303-651-4100",
    "hours": "0000-2359",
    "travelDays": "2",
    "lat": "40.18857",
    "long": "-105.12782"
  },
  {
    "facId": "ZFW",
    "name": "Fort Worth Center",
    "level": "12",
    "type": "ARTCC",
    "address": "13800 FAA Rd",
    "city": "Fort Worth",
    "state": "TX",
    "zip": "76155",
    "phone": "817-858-7500",
    "hours": "0000-2359",
    "travelDays": "1",
    "lat": "32.83053",
    "long": "-97.066"
  },
  {
    "facId": "ZHU",
    "name": "Houston Center",
    "level": "11",
    "type": "ARTCC",
    "address": "16600 John F Kennedy Blvd",
    "city": "Houston",
    "state": "TX",
    "zip": "77032",
    "phone": "713-230-5500",
    "hours": "0000-2359",
    "travelDays": "1",
    "lat": "29.985823",
    "long": "-95.34155"
  },
  {
    "facId": "ZID",
    "name": "Indianapolis Center",
    "level": "12",
    "type": "ARTCC",
    "address": "1850 S Sigsbee St",
    "city": "Indianapolis",
    "state": "IN",
    "zip": "46241",
    "phone": "317-247-2234",
    "hours": "0000-2359",
    "travelDays": "2",
    "lat": "39.739628",
    "long": "-86.27734"
  },
  {
    "facId": "ZJX",
    "name": "Jacksonville Center",
    "level": "11",
    "type": "ARTCC",
    "address": "37075 Aviation Ln",
    "city": "Hilliard",
    "state": "FL",
    "zip": "32046",
    "phone": "904 549-1537",
    "hours": "0000-2359",
    "travelDays": "3",
    "lat": "30.69781",
    "long": "-81.90882"
  },
  {
    "facId": "ZKC",
    "name": "Kansas City Center",
    "level": "11",
    "type": "ARTCC",
    "address": "250 S Rogers Rd",
    "city": "Olathe",
    "state": "KS",
    "zip": "66062",
    "phone": "913-254-8400",
    "hours": "0000-2359",
    "travelDays": "1",
    "lat": "38.88021",
    "long": "-94.79049"
  },
  {
    "facId": "ZLA",
    "name": "Los Angeles Center",
    "level": "12",
    "type": "ARTCC",
    "address": "2555 E Ave P",
    "city": "Palmdale",
    "state": "CA",
    "zip": "93550",
    "phone": "510-745-3000",
    "hours": "0000-2359",
    "travelDays": "3",
    "lat": "34.602325",
    "long": "-118.08406"
  },
  {
    "facId": "ZLC",
    "name": "Salt Lake City Center",
    "level": "10",
    "type": "ARTCC",
    "address": "2150 W 700 N",
    "city": "Salt Lake City",
    "state": "UT",
    "zip": "84116",
    "phone": "303-651-4109",
    "hours": "0000-2359",
    "travelDays": "3",
    "lat": "40.78477",
    "long": "-111.95175"
  },
  {
    "facId": "ZMA",
    "name": "Miami Center",
    "level": "11",
    "type": "ARTCC",
    "address": "7500 NW 58th St",
    "city": "Miami",
    "state": "FL",
    "zip": "33166",
    "phone": "305-716-1500",
    "hours": "0000-2359",
    "travelDays": "4",
    "lat": "25.8248",
    "long": "-80.319347"
  },
  {
    "facId": "ZME",
    "name": "Mephis Center",
    "level": "12",
    "type": "ARTCC",
    "address": "3229 Democrat Rd",
    "city": "Memphis",
    "state": "TN",
    "zip": "38118",
    "phone": "901-368-8160",
    "hours": "0000-2359",
    "travelDays": "1",
    "lat": "35.068867",
    "long": "-89.958626"
  },
  {
    "facId": "ZMP",
    "name": "Minneapolis Center",
    "level": "11",
    "type": "ARTCC",
    "address": "512 Division St",
    "city": "Farmington",
    "state": "MN",
    "zip": "55024",
    "phone": "651-463-5510",
    "hours": "0000-2359",
    "travelDays": "2",
    "lat": "44.637783",
    "long": "-93.15073"
  },
  {
    "facId": "ZNY",
    "name": "New York Center",
    "level": "12",
    "type": "ARTCC",
    "address": "4205 Johnson Ave",
    "city": "Ronkonkoma",
    "state": "NY",
    "zip": "11779",
    "phone": "631-468-1001",
    "hours": "0000-2359",
    "travelDays": "4",
    "lat": "40.80769",
    "long": "-73.120895"
  },
  {
    "facId": "ZOA",
    "name": "Oakland Center",
    "level": "11",
    "type": "ARTCC",
    "address": "5125 Central Ave",
    "city": "Fremont",
    "state": "CA",
    "zip": "94536",
    "phone": "808-935-4658",
    "hours": "0000-2359",
    "travelDays": "4",
    "lat": "37.54488",
    "long": "-122.013336"
  },
  {
    "facId": "ZOB",
    "name": "Cleveland Center",
    "level": "12",
    "type": "ARTCC",
    "address": "326 E Lorain St",
    "city": "Oberlin",
    "state": "OH",
    "zip": "44074",
    "phone": "440-774-0300",
    "hours": "0000-2359",
    "travelDays": "3",
    "lat": "41.29409",
    "long": "-82.20859"
  },
  {
    "facId": "ZSE",
    "name": "Seattle Center",
    "level": "10",
    "type": "ARTCC",
    "address": "3101 Auburn Way S",
    "city": "Auburn",
    "state": "WA",
    "zip": "98902",
    "phone": "801-320-2500",
    "hours": "0000-2359",
    "travelDays": "5",
    "lat": "47.28823",
    "long": "-122.189026"
  },
  {
    "facId": "ZSU",
    "name": "San Juan CERAP",
    "level": "9",
    "type": "ARTCC",
    "address": "5000 Carretera 190",
    "city": "Carolina",
    "state": "PR",
    "zip": "979",
    "phone": "828-684-0421",
    "hours": "0000-2359",
    "travelDays": "X",
    "lat": "18.431211",
    "long": "-65.993203"
  },
  {
    "facId": "ZTL",
    "name": "Atlanta Center",
    "level": "12",
    "type": "ARTCC",
    "address": "299 Woolsey Rd",
    "city": "Hampton",
    "state": "GA",
    "zip": "30228",
    "phone": "770-210-7601",
    "hours": "0000-2359",
    "travelDays": "2",
    "lat": "33.379446",
    "long": "-84.296862"
  },
  {
    "facId": "ZUA",
    "name": "Guam CERAP",
    "level": "8",
    "type": "ARTCC",
    "address": "1775 Admiral Sherman Blvd",
    "city": "Barrigada",
    "state": "GU",
    "zip": "96913",
    "phone": "671-473-1200",
    "hours": "0000-2359",
    "travelDays": "X",
    "lat": "13.478867",
    "long": "144.797156"
  }
]
